,zip,city,state,latitude,longitude,timezone,daylight_savings_time_flag,geopoint
0,95717,Gold Run,CA,39.177026,-120.8451,-8,1,"39.177026, -120.8451"
1,71340,Harrisonburg,LA,31.765818,-91.82382,-6,1,"31.765818, -91.82382"
2,80223,Denver,CO,39.699156,-104.99999,-7,1,"39.699156, -104.99999"
3,98125,Seattle,WA,47.716648,-122.30308,-8,1,"47.716648, -122.30308"
4,36689,Mobile,AL,30.658865,-88.177975,-6,1,"30.658865, -88.177975"
5,1373,South Deerfield,MA,42.472734,-72.62452,-5,1,"42.472734, -72.62452"
6,45694,Wheelersburg,OH,38.729816,-82.80039999999998,-5,1,"38.729816, -82.8004"
7,80809,Cascade,CO,38.911701,-104.98731,-7,1,"38.911701, -104.98731"
8,56441,Crosby,MN,46.528094,-93.98055,-6,1,"46.528094, -93.98055"
9,35584,Sipsey,AL,33.823683,-87.08699,-6,1,"33.823683, -87.08699"
10,83839,Kingston,ID,47.566703,-116.20773999999999,-8,1,"47.566703, -116.20774"
11,76263,Rosston,TX,33.487842,-97.42115500000001,-6,1,"33.487842, -97.421155"
12,13031,Camillus,NY,43.039916,-76.28757,-5,1,"43.039916, -76.28757"
13,49666,Mayfield,MI,44.635328,-85.5614,-5,1,"44.635328, -85.5614"
14,15468,New Salem,PA,39.936535,-79.84668999999998,-5,1,"39.936535, -79.84669"
15,43947,Shadyside,OH,39.964553,-80.76013,-5,1,"39.964553, -80.76013"
16,68333,Crete,NE,40.620175,-96.96099,-6,1,"40.620175, -96.96099"
17,76958,Water Valley,TX,31.663528999999997,-100.71789,-6,1,"31.663529, -100.71789"
18,11803,Plainview,NY,40.779911,-73.47947999999998,-5,1,"40.779911, -73.47948"
19,71452,Melrose,LA,31.612618,-92.98075,-6,1,"31.612618, -92.98075"
20,37620,Bristol,TN,36.561341,-82.16869,-5,1,"36.561341, -82.16869"
21,43437,Jerry City,OH,41.252306,-83.60464,-5,1,"41.252306, -83.60464"
22,37371,Athens,TN,35.441376,-84.64162299999998,-5,1,"35.441376, -84.641623"
23,55175,Saint Paul,MN,45.005902,-93.105869,-6,1,"45.005902, -93.105869"
24,68767,Pierce,NE,42.200994,-97.54527,-6,1,"42.200994, -97.54527"
25,75230,Dallas,TX,32.901176,-96.79054,-6,1,"32.901176, -96.79054"
26,76472,Santo,TX,32.617128,-98.17476,-6,1,"32.617128, -98.17476"
27,15928,Davidsville,PA,40.23741,-78.92977999999998,-5,1,"40.23741, -78.92978"
28,42783,Summit,KY,37.567134,-86.08525899999998,-5,1,"37.567134, -86.085259"
29,97528,Grants Pass,OR,42.396421,-123.535027,-8,1,"42.396421, -123.535027"
30,4621,Eastport,ME,44.904789,-66.990529,-5,1,"44.904789, -66.990529"
31,75683,Ore City,TX,32.809766,-94.70513,-6,1,"32.809766, -94.70513"
32,42088,Wingo,KY,36.627427,-88.74845,-6,1,"36.627427, -88.74845"
33,75025,Plano,TX,33.086868,-96.74504,-6,1,"33.086868, -96.74504"
34,55189,Saint Paul,MN,45.005902,-93.105869,-6,1,"45.005902, -93.105869"
35,93702,Fresno,CA,36.741199,-119.7553,-8,1,"36.741199, -119.7553"
36,37239,Nashville,TN,36.186605,-86.78524799999998,-6,1,"36.186605, -86.785248"
37,57202,Waverly,SD,44.977634,-97.188372,-6,1,"44.977634, -97.188372"
38,17211,Artemas,PA,39.742192,-78.42113,-5,1,"39.742192, -78.42113"
39,70167,New Orleans,LA,30.032997,-89.882564,-6,1,"30.032997, -89.882564"
40,85030,Phoenix,AZ,33.276539,-112.18717,-7,0,"33.276539, -112.18717"
41,46671,Topeka,IN,41.532773,-85.539454,-5,0,"41.532773, -85.539454"
42,94555,Fremont,CA,37.571581,-122.0509,-8,1,"37.571581, -122.0509"
43,16509,Erie,PA,42.074056,-80.06927,-5,1,"42.074056, -80.06927"
44,5465,Jericho,VT,44.486113,-72.96317,-5,1,"44.486113, -72.96317"
45,72534,Floral,AR,35.588979,-91.74043,-6,1,"35.588979, -91.74043"
46,21613,Cambridge,MD,38.545285,-76.09117999999998,-5,1,"38.545285, -76.09118"
47,99322,Bickleton,WA,45.963054,-120.25546999999999,-8,1,"45.963054, -120.25547"
48,79330,Justiceburg,TX,33.04993,-101.14146,-6,1,"33.04993, -101.14146"
49,56319,Carlos,MN,45.990781,-95.27033,-6,1,"45.990781, -95.27033"
50,48448,Sciota,MI,42.955783,-84.30092899999998,-5,1,"42.955783, -84.300929"
51,47993,Williamsport,IN,40.300013,-87.38396,-5,0,"40.300013, -87.38396"
52,50585,Sioux Rapids,IA,42.907223,-95.14315,-6,1,"42.907223, -95.14315"
53,49639,Hersey,MI,43.84716,-85.40908,-5,1,"43.84716, -85.40908"
54,44095,Eastlake,OH,41.653796,-81.44614,-5,1,"41.653796, -81.44614"
55,63937,Ellsinore,MO,36.936583,-90.75026,-6,1,"36.936583, -90.75026"
56,20790,Capitol Heights,MD,38.833563,-76.87774299999998,-5,1,"38.833563, -76.877743"
57,58436,Ellendale,ND,46.067077,-98.58044,-6,1,"46.067077, -98.58044"
58,19044,Horsham,PA,40.184758,-75.14386,-5,1,"40.184758, -75.14386"
59,68404,Martell,NE,40.617147,-96.7559,-6,1,"40.617147, -96.7559"
60,5141,Cambridgeport,VT,42.99467,-72.72036199999998,-5,1,"42.99467, -72.720362"
61,80007,Arvada,CO,39.833442,-105.18591,-7,1,"39.833442, -105.18591"
62,70821,Baton Rouge,LA,30.461252,-91.044723,-6,1,"30.461252, -91.044723"
63,49621,Cedar,MI,44.872464,-85.78716,-5,1,"44.872464, -85.78716"
64,53038,Johnson Creek,WI,43.075784,-88.77594999999998,-6,1,"43.075784, -88.77595"
65,29715,Fort Mill,SC,35.008416,-80.91643999999998,-5,1,"35.008416, -80.91644"
66,54738,Eleva,WI,44.586469,-91.48873,-6,1,"44.586469, -91.48873"
67,32766,Oviedo,FL,28.639275,-81.11906,-5,1,"28.639275, -81.11906"
68,46250,Indianapolis,IN,39.905689,-86.06733,-5,0,"39.905689, -86.06733"
69,12482,South Cairo,NY,42.270559,-73.95729,-5,1,"42.270559, -73.95729"
70,59859,Plains,MT,47.452071,-114.8171,-7,1,"47.452071, -114.8171"
71,28779,Sylva,NC,35.37273,-83.20771999999998,-5,1,"35.37273, -83.20772"
72,62811,Bellmont,IL,38.384799,-87.90949,-6,1,"38.384799, -87.90949"
73,51546,Logan,IA,41.64252,-95.78134,-6,1,"41.64252, -95.78134"
74,68137,Omaha,NE,41.204631,-96.12108,-6,1,"41.204631, -96.12108"
75,93765,Fresno,CA,36.746375,-119.63965800000001,-8,1,"36.746375, -119.639658"
76,16664,New Enterprise,PA,40.174807,-78.41772,-5,1,"40.174807, -78.41772"
77,68718,Bloomfield,NE,42.651113,-97.67271,-6,1,"42.651113, -97.67271"
78,20753,District Heights,MD,38.833563,-76.87774299999998,-5,1,"38.833563, -76.877743"
79,70585,Turkey Creek,LA,30.871853,-92.40532,-6,1,"30.871853, -92.40532"
80,3561,Littleton,NH,44.313606,-71.79751,-5,1,"44.313606, -71.79751"
81,67030,Colwich,KS,37.787206,-97.54135,-6,1,"37.787206, -97.54135"
82,15831,Dagus Mines,PA,41.304782,-78.621286,-5,1,"41.304782, -78.621286"
83,6825,Bridgeport,CT,41.191685,-73.238012,-5,1,"41.191685, -73.238012"
84,87421,Waterflow,NM,36.877607,-108.62606000000001,-7,1,"36.877607, -108.62606"
85,20889,Bethesda,MD,39.143979,-77.207617,-5,1,"39.143979, -77.207617"
86,54310,Liberty Grove,WI,45.210664,-87.041244,-6,1,"45.210664, -87.041244"
87,45623,Crown City,OH,38.630633,-82.2697,-5,1,"38.630633, -82.2697"
88,85627,Pomerene,AZ,32.09881,-110.09917,-7,0,"32.09881, -110.09917"
89,13061,Erieville,NY,42.859332,-75.74261,-5,1,"42.859332, -75.74261"
90,36859,Holy Trinity,AL,32.229846,-85.008178,-6,1,"32.229846, -85.008178"
91,35052,Cook Springs,AL,33.593115,-86.4084,-6,1,"33.593115, -86.4084"
92,74536,Clayton,OK,34.590491,-95.36797,-6,1,"34.590491, -95.36797"
93,56533,Elizabeth,MN,46.405807,-96.15831,-6,1,"46.405807, -96.15831"
94,51501,Council Bluffs,IA,41.251631,-95.87447,-6,1,"41.251631, -95.87447"
95,89138,Las Vegas,NV,35.927901,-114.97206100000001,-8,1,"35.927901, -114.972061"
96,73944,Hardesty,OK,36.605467,-101.1204,-6,1,"36.605467, -101.1204"
97,99202,Spokane,WA,47.656692,-117.37898999999999,-8,1,"47.656692, -117.37899"
98,75389,Dallas,TX,32.767268,-96.777626,-6,1,"32.767268, -96.777626"
99,68157,Omaha,NE,41.182198,-95.99058,-6,1,"41.182198, -95.99058"
100,68026,Fremont,NE,41.567907,-96.617443,-6,1,"41.567907, -96.617443"
101,14047,Derby,NY,42.694598,-78.98151,-5,1,"42.694598, -78.98151"
102,60067,Palatine,IL,42.10979,-88.04917,-6,1,"42.10979, -88.04917"
103,70630,Bell City,LA,30.077002,-93.03224,-6,1,"30.077002, -93.03224"
104,12465,Pine Hill,NY,42.136293,-74.473639,-5,1,"42.136293, -74.473639"
105,99203,Spokane,WA,47.629091,-117.40636,-8,1,"47.629091, -117.40636"
106,39406,Hattiesburg,MS,31.172142,-89.29477199999998,-6,1,"31.172142, -89.294772"
107,16679,Six Mile Run,PA,40.163172,-78.20555,-5,1,"40.163172, -78.20555"
108,31563,Surrency,GA,31.715778000000004,-82.19784,-5,1,"31.715778, -82.19784"
109,35903,Gadsden,AL,33.996698,-85.92496,-6,1,"33.996698, -85.92496"
110,28123,Mount Mourne,NC,35.529792,-80.947028,-5,1,"35.529792, -80.947028"
111,99505,Fort Richardson,AK,61.261518,-149.66336,-9,1,"61.261518, -149.66336"
112,33411,West Palm Beach,FL,26.719596,-80.22077,-5,1,"26.719596, -80.22077"
113,83274,Shelley,ID,43.366017,-112.11712,-7,1,"43.366017, -112.11712"
114,16023,Cabot,PA,40.796809,-79.75147,-5,1,"40.796809, -79.75147"
115,2883,Peace Dale,RI,41.375317,-71.64393,-5,1,"41.375317, -71.64393"
116,56650,Kelliher,MN,47.997931,-94.55748,-6,1,"47.997931, -94.55748"
117,66752,Ross,KS,37.332679,-94.977587,-6,1,"37.332679, -94.977587"
118,19171,Philadelphia,PA,40.001811,-75.11786999999998,-5,1,"40.001811, -75.11787"
119,38927,Enid,MS,34.135098,-90.01820999999998,-6,1,"34.135098, -90.01821"
120,36560,Mount Vernon,AL,31.088463,-88.03006999999998,-6,1,"31.088463, -88.03007"
121,16261,Widnoon,PA,40.847829,-79.451575,-5,1,"40.847829, -79.451575"
122,29152,Shaw A F B,SC,33.972863,-80.46534,-5,1,"33.972863, -80.46534"
123,50515,Ayrshire,IA,43.023296,-94.85188,-6,1,"43.023296, -94.85188"
124,12992,West Chazy,NY,44.819829,-73.51156,-5,1,"44.819829, -73.51156"
125,5433,Lincoln,VT,44.039878,-73.015358,-5,1,"44.039878, -73.015358"
126,76909,San Angelo,TX,31.39577,-100.68959,-6,1,"31.39577, -100.68959"
127,59871,Sula,MT,45.887807,-113.84407,-7,1,"45.887807, -113.84407"
128,4250,Lisbon,ME,44.027509,-70.1097,-5,1,"44.027509, -70.1097"
129,8542,Princeton,NJ,40.354424,-74.65943,-5,1,"40.354424, -74.65943"
130,47578,Sandborn,IN,38.892783,-87.1913,-5,0,"38.892783, -87.1913"
131,79851,Sierra Blanca,TX,31.182009,-105.34083999999999,-7,1,"31.182009, -105.34084"
132,55597,Loretto,MN,45.015914,-93.47188000000001,-6,1,"45.015914, -93.47188"
133,73134,Oklahoma City,OK,35.612359,-97.57152,-6,1,"35.612359, -97.57152"
134,25630,Lorado,WV,37.80126,-81.70802,-5,1,"37.80126, -81.70802"
135,63036,French Village,MO,37.97861,-90.34637,-6,1,"37.97861, -90.34637"
136,57424,Ashton,SD,45.008745,-98.52375,-6,1,"45.008745, -98.52375"
137,27542,Kenly,NC,35.606392,-78.13755,-5,1,"35.606392, -78.13755"
138,8922,New Brunswick,NJ,40.430006,-74.417344,-5,1,"40.430006, -74.417344"
139,28480,Wrightsville Beach,NC,34.21222,-77.7981,-5,1,"34.21222, -77.7981"
140,73004,Amber,OK,35.152892,-97.85582,-6,1,"35.152892, -97.85582"
141,24175,Troutville,VA,37.427597,-79.90595,-5,1,"37.427597, -79.90595"
142,46242,Indianapolis,IN,39.779492,-86.13283699999998,-5,0,"39.779492, -86.132837"
143,91791,West Covina,CA,34.063645,-117.89743,-8,1,"34.063645, -117.89743"
144,50514,Armstrong,IA,43.398596,-94.47223,-6,1,"43.398596, -94.47223"
145,75631,Beckville,TX,32.237924,-94.46427000000001,-6,1,"32.237924, -94.46427"
146,64944,Kansas City,MO,39.035038,-94.356728,-6,1,"39.035038, -94.356728"
147,67147,Valley Center,KS,37.853935,-97.33059,-6,1,"37.853935, -97.33059"
148,56385,Villard,MN,45.702767,-95.21433,-6,1,"45.702767, -95.21433"
149,32799,Mid Florida,FL,28.744752,-81.22328,-5,1,"28.744752, -81.22328"
150,96765,Lawai,HI,21.930922,-159.499342,-10,0,"21.930922, -159.499342"
151,40143,Hardinsburg,KY,37.777083,-86.48345,-6,1,"37.777083, -86.48345"
152,19708,Kirkwood,DE,39.577567,-75.69006899999998,-5,1,"39.577567, -75.690069"
153,50676,Tripoli,IA,42.807994,-92.26368,-6,1,"42.807994, -92.26368"
154,72353,Lambrook,AR,34.297754,-91.00403,-6,1,"34.297754, -91.00403"
155,13040,Cincinnatus,NY,42.560795,-75.93241,-5,1,"42.560795, -75.93241"
156,22223,Arlington,VA,38.880811,-77.11295,-5,1,"38.880811, -77.11295"
157,66945,Hanover,KS,39.888945,-96.88156,-6,1,"39.888945, -96.88156"
158,94619,Oakland,CA,37.790027,-122.18615,-8,1,"37.790027, -122.18615"
159,79760,Odessa,TX,31.765163,-102.354346,-6,1,"31.765163, -102.354346"
160,14847,Interlaken,NY,42.614518,-76.72405,-5,1,"42.614518, -76.72405"
161,43701,Zanesville,OH,39.949377,-82.00492,-5,1,"39.949377, -82.00492"
162,47591,Vincennes,IN,38.668827,-87.50790999999998,-5,0,"38.668827, -87.50791"
163,80201,Denver,CO,39.726303,-104.856808,-7,1,"39.726303, -104.856808"
164,79951,El Paso,TX,31.694842,-106.29998700000002,-7,1,"31.694842, -106.299987"
165,76020,Azle,TX,32.905693,-97.54845,-6,1,"32.905693, -97.54845"
166,28735,Gerton,NC,35.478887,-82.34855,-5,1,"35.478887, -82.34855"
167,74857,Newalla,OK,35.35161200000001,-97.19507,-6,1,"35.351612, -97.19507"
168,29453,Jamestown,SC,33.235105,-79.61472,-5,1,"33.235105, -79.61472"
169,65018,California,MO,38.624862,-92.56443,-6,1,"38.624862, -92.56443"
170,27495,Greensboro,NC,36.080707,-80.0244,-5,1,"36.080707, -80.0244"
171,14220,Buffalo,NY,42.845758,-78.8187,-5,1,"42.845758, -78.8187"
172,67653,Norcatur,KS,39.907372,-100.20732,-6,1,"39.907372, -100.20732"
173,30410,Ailey,GA,32.196136,-82.50985,-5,1,"32.196136, -82.50985"
174,19898,Wilmington,DE,39.564499,-75.597047,-5,1,"39.564499, -75.597047"
175,58235,Gilby,ND,48.084335,-97.47238,-6,1,"48.084335, -97.47238"
176,6375,Quaker Hill,CT,41.401398,-72.11444,-5,1,"41.401398, -72.11444"
177,46295,Indianapolis,IN,39.779492,-86.13283699999998,-5,0,"39.779492, -86.132837"
178,38229,Gleason,TN,36.223573,-88.60613999999998,-6,1,"36.223573, -88.60614"
179,58421,Carrington,ND,47.450049,-99.08527,-6,1,"47.450049, -99.08527"
180,95050,Santa Clara,CA,37.347791,-121.95131,-8,1,"37.347791, -121.95131"
181,55105,Saint Paul,MN,44.934465,-93.16554,-6,1,"44.934465, -93.16554"
182,72617,Big Flat,AR,36.004445,-92.37364,-6,1,"36.004445, -92.37364"
183,48101,Allen Park,MI,42.254788,-83.21026999999998,-5,1,"42.254788, -83.21027"
184,36690,Mobile,AL,30.658865,-88.177975,-6,1,"30.658865, -88.177975"
185,5255,Manchester Center,VT,43.172699,-73.05261,-5,1,"43.172699, -73.05261"
186,19102,Philadelphia,PA,39.952962,-75.16558,-5,1,"39.952962, -75.16558"
187,43412,Curtice,OH,41.63678,-83.30723999999998,-5,1,"41.63678, -83.30724"
188,35254,Birmingham,AL,33.544622,-86.929208,-6,1,"33.544622, -86.929208"
189,25285,Wallback,WV,38.566365,-81.12923,-5,1,"38.566365, -81.12923"
190,66861,Marion,KS,38.359189,-97.01768000000001,-6,1,"38.359189, -97.01768"
191,1033,Granby,MA,42.254563,-72.51831,-5,1,"42.254563, -72.51831"
192,49085,Saint Joseph,MI,42.074435,-86.47934999999998,-5,1,"42.074435, -86.47935"
193,96119,Madeline,CA,41.021344,-120.52472,-8,1,"41.021344, -120.52472"
194,56473,Pillager,MN,46.368605,-94.4846,-6,1,"46.368605, -94.4846"
195,56459,Lake Hubert,MN,46.498749,-94.251926,-6,1,"46.498749, -94.251926"
196,610,Anasco,PR,18.288319,-67.13604,-4,0,"18.288319, -67.13604"
197,29816,Bath,SC,33.503438,-81.87128,-5,1,"33.503438, -81.87128"
198,43030,Jacksontown,OH,39.968846,-82.430017,-5,1,"39.968846, -82.430017"
199,33162,Miami,FL,25.929571,-80.17838999999998,-5,1,"25.929571, -80.17839"
200,42374,South Carrollton,KY,37.33976,-87.14514,-6,1,"37.33976, -87.14514"
201,78682,Round Rock,TX,30.656816999999997,-97.602552,-6,1,"30.656817, -97.602552"
202,13760,Endicott,NY,42.113974,-76.05256,-5,1,"42.113974, -76.05256"
203,53807,Cuba City,WI,42.607138,-90.44812,-6,1,"42.607138, -90.44812"
204,48224,Detroit,MI,42.410487,-82.94347999999998,-5,1,"42.410487, -82.94348"
205,20733,Churchton,MD,38.801516,-76.52469,-5,1,"38.801516, -76.52469"
206,18452,Peckville,PA,41.48188,-75.58669,-5,1,"41.48188, -75.58669"
207,92690,Mission Viejo,CA,33.640302,-117.769442,-8,1,"33.640302, -117.769442"
208,35457,Echola,AL,33.301003,-87.77187,-6,1,"33.301003, -87.77187"
209,63102,Saint Louis,MO,38.6352,-90.18702,-6,1,"38.6352, -90.18702"
210,82213,Glendo,WY,42.489239,-104.97591000000001,-7,1,"42.489239, -104.97591"
211,3575,Bretton Woods,NH,44.695648,-71.387387,-5,1,"44.695648, -71.387387"
212,64784,Sheldon,MO,37.665823,-94.26399,-6,1,"37.665823, -94.26399"
213,77258,Houston,TX,29.833990000000004,-95.434241,-6,1,"29.83399, -95.434241"
214,20899,Gaithersburg,MD,39.140324,-77.221984,-5,1,"39.140324, -77.221984"
215,2646,Harwich Port,MA,41.669219,-70.07419,-5,1,"41.669219, -70.07419"
216,58530,Center,ND,47.133382,-101.18309,-6,1,"47.133382, -101.18309"
217,40818,Coalgood,KY,36.807137,-83.26551999999998,-5,1,"36.807137, -83.26552"
218,65708,Monett,MO,36.91816,-93.91488,-6,1,"36.91816, -93.91488"
219,61423,Cameron,IL,40.889288,-90.50529,-6,1,"40.889288, -90.50529"
220,84304,Cache Junction,UT,41.832776,-111.99738,-7,1,"41.832776, -111.99738"
221,88417,Cuervo,NM,35.014908,-104.41778,-7,1,"35.014908, -104.41778"
222,12723,Callicoon,NY,41.769427,-75.02808,-5,1,"41.769427, -75.02808"
223,35205,Birmingham,AL,33.497055,-86.8057,-6,1,"33.497055, -86.8057"
224,95628,Fair Oaks,CA,38.654803,-121.26529,-8,1,"38.654803, -121.26529"
225,92090,El Cajon,CA,33.016928,-116.846046,-8,1,"33.016928, -116.846046"
226,13468,Springfield Center,NY,42.843002,-74.86479,-5,1,"42.843002, -74.86479"
227,54762,Prairie Farm,WI,45.24647,-91.99273,-6,1,"45.24647, -91.99273"
228,91301,Agoura Hills,CA,34.139536,-118.7607,-8,1,"34.139536, -118.7607"
229,4274,Poland,ME,44.049157,-70.39077,-5,1,"44.049157, -70.39077"
230,67663,Plainville,KS,39.212784,-99.31688,-6,1,"39.212784, -99.31688"
231,11548,Greenvale,NY,40.813187,-73.62560999999998,-5,1,"40.813187, -73.62561"
232,80118,Larkspur,CO,39.206652,-104.90983,-7,1,"39.206652, -104.90983"
233,96086,Seiad Valley,CA,41.86235,-123.24091000000001,-8,1,"41.86235, -123.24091"
234,94626,Oakland,CA,37.819314,-122.303136,-8,1,"37.819314, -122.303136"
235,98504,Olympia,WA,46.978118,-122.70239299999999,-8,1,"46.978118, -122.702393"
236,98053,Redmond,WA,47.640972,-122.03318,-8,1,"47.640972, -122.03318"
237,36276,Wadley,AL,33.142612,-85.57418,-6,1,"33.142612, -85.57418"
238,55556,Young America,MN,44.805487,-93.766524,-6,1,"44.805487, -93.766524"
239,54731,Conrath,WI,45.36469,-91.04968,-6,1,"45.36469, -91.04968"
240,83643,Mesa,ID,44.605095,-116.48879,-7,1,"44.605095, -116.48879"
241,18932,Line Lexington,PA,40.289372,-75.25571999999998,-5,1,"40.289372, -75.25572"
242,92128,San Diego,CA,32.998855,-117.07054,-8,1,"32.998855, -117.07054"
243,33155,Miami,FL,25.739011,-80.30684999999998,-5,1,"25.739011, -80.30685"
244,15278,Pittsburgh,PA,40.434436,-80.024817,-5,1,"40.434436, -80.024817"
245,81505,Grand Junction,CO,39.112514,-108.60506,-7,1,"39.112514, -108.60506"
246,2909,Providence,RI,41.8191,-71.44775,-5,1,"41.8191, -71.44775"
247,51049,Quimby,IA,42.626822,-95.61438,-6,1,"42.626822, -95.61438"
248,93701,Fresno,CA,36.749444,-119.78872,-8,1,"36.749444, -119.78872"
249,68792,Wynot,NE,42.749481,-97.14372,-6,1,"42.749481, -97.14372"
250,29164,Wagener,SC,33.659078,-81.40845,-5,1,"33.659078, -81.40845"
251,93465,Templeton,CA,35.54464,-120.72428,-8,1,"35.54464, -120.72428"
252,36535,Foley,AL,30.396876,-87.69616,-6,1,"30.396876, -87.69616"
253,34209,Bradenton,FL,27.488866,-82.62737,-5,1,"27.488866, -82.62737"
254,84307,Corinne,UT,41.535714,-112.30373,-7,1,"41.535714, -112.30373"
255,10166,New York,NY,40.754591,-73.97623799999998,-5,1,"40.754591, -73.976238"
256,26561,Big Run,WV,39.575518,-80.666712,-5,1,"39.575518, -80.666712"
257,4747,Island Falls,ME,46.004523,-68.27004,-5,1,"46.004523, -68.27004"
258,62248,Hecker,IL,38.299507,-89.961825,-6,1,"38.299507, -89.961825"
259,24513,Lynchburg,VA,37.245798,-79.13354599999998,-5,1,"37.245798, -79.133546"
260,18221,Drifton,PA,41.004017,-75.90569,-5,1,"41.004017, -75.90569"
261,40078,Willisburg,KY,37.840066,-85.12572,-5,1,"37.840066, -85.12572"
262,30671,Maxeys,GA,33.748344,-83.18537999999998,-5,1,"33.748344, -83.18538"
263,76066,Millsap,TX,32.715412,-98.00165,-6,1,"32.715412, -98.00165"
264,97002,Aurora,OR,45.234609,-122.79749,-8,1,"45.234609, -122.79749"
265,14301,Niagara Falls,NY,43.096555,-79.03924999999998,-5,1,"43.096555, -79.03925"
266,32571,Milton,FL,30.627637,-87.16724,-6,1,"30.627637, -87.16724"
267,10506,Bedford,NY,41.195778,-73.62777,-5,1,"41.195778, -73.62777"
268,60069,Lincolnshire,IL,42.188074,-87.92717,-6,1,"42.188074, -87.92717"
269,74438,Hitchita,OK,35.520519,-95.75122,-6,1,"35.520519, -95.75122"
270,79935,El Paso,TX,31.784541,-106.33705,-7,1,"31.784541, -106.33705"
271,75939,Corrigan,TX,30.998982,-94.7994,-6,1,"30.998982, -94.7994"
272,22959,North Garden,VA,37.935994,-78.64087999999998,-5,1,"37.935994, -78.64088"
273,31071,Pineview,GA,32.13702,-83.52603999999998,-5,1,"32.13702, -83.52604"
274,59501,Havre,MT,48.584562,-109.78365,-7,1,"48.584562, -109.78365"
275,59313,Baker,MT,46.357253,-104.25299,-7,1,"46.357253, -104.25299"
276,79529,Knox City,TX,33.423156,-99.82014,-6,1,"33.423156, -99.82014"
277,8091,West Berlin,NJ,39.807695,-74.93392,-5,1,"39.807695, -74.93392"
278,12527,Glenham,NY,41.520249,-73.933259,-5,1,"41.520249, -73.933259"
279,6907,Stamford,CT,41.096846,-73.52128,-5,1,"41.096846, -73.52128"
280,99624,Larsen Bay,AK,57.529161,-154.00286,-9,1,"57.529161, -154.00286"
281,24431,Crimora,VA,38.167914,-78.84222,-5,1,"38.167914, -78.84222"
282,95318,El Portal,CA,37.673629,-119.81305,-8,1,"37.673629, -119.81305"
283,50475,Sheffield,IA,42.88516,-93.22082,-6,1,"42.88516, -93.22082"
284,95240,Lodi,CA,38.12463,-121.25039,-8,1,"38.12463, -121.25039"
285,4441,Greenville,ME,45.517693,-69.5223,-5,1,"45.517693, -69.5223"
286,53708,Madison,WI,43.06956,-89.423861,-6,1,"43.06956, -89.423861"
287,4947,Kingfield,ME,45.018122,-70.2669,-5,1,"45.018122, -70.2669"
288,25015,Belle,WV,38.224918,-81.5151,-5,1,"38.224918, -81.5151"
289,76179,Fort Worth,TX,32.876475,-97.41249,-6,1,"32.876475, -97.41249"
290,32208,Jacksonville,FL,30.392888,-81.67932999999998,-5,1,"30.392888, -81.67933"
291,33090,Homestead,FL,25.558428,-80.458168,-5,1,"25.558428, -80.458168"
292,64420,Allendale,MO,40.478118,-94.42329400000001,-6,1,"40.478118, -94.423294"
293,22652,Fort Valley,VA,38.823987,-78.4531,-5,1,"38.823987, -78.4531"
294,3467,Westmoreland,NH,42.971069,-72.42512,-5,1,"42.971069, -72.42512"
295,72331,Earle,AR,35.266812,-90.46421,-6,1,"35.266812, -90.46421"
296,18328,Dingmans Ferry,PA,41.241889,-74.95917,-5,1,"41.241889, -74.95917"
297,72636,Gilbert,AR,35.916744,-92.681408,-6,1,"35.916744, -92.681408"
298,71545,Montgomery,LA,31.665809999999997,-92.890325,-6,1,"31.66581, -92.890325"
299,19853,Schuylkill,PA,40.088156,-75.48088699999998,-5,1,"40.088156, -75.480887"
300,28411,Wilmington,NC,34.285519,-77.80571999999998,-5,1,"34.285519, -77.80572"
301,36545,Jackson,AL,31.508231,-87.88346,-6,1,"31.508231, -87.88346"
302,59226,Froid,MT,48.317939,-104.44433,-7,1,"48.317939, -104.44433"
303,40587,Lexington,KY,38.028269,-84.47150499999998,-5,1,"38.028269, -84.471505"
304,71148,Shreveport,LA,32.607556,-93.75256,-6,1,"32.607556, -93.75256"
305,2196,Boston,MA,42.338947,-70.919635,-5,1,"42.338947, -70.919635"
306,14823,Canisteo,NY,42.250187,-77.58405999999998,-5,1,"42.250187, -77.58406"
307,78502,Mcallen,TX,26.25671,-98.198929,-6,1,"26.25671, -98.198929"
308,21090,Linthicum Heights,MD,39.209529,-76.66177,-5,1,"39.209529, -76.66177"
309,99740,Fort Yukon,AK,66.566652,-145.28231,-9,1,"66.566652, -145.28231"
310,32834,Orlando,FL,28.566338,-81.260818,-5,1,"28.566338, -81.260818"
311,59330,Glendive,MT,47.107345,-104.72683,-7,1,"47.107345, -104.72683"
312,85282,Tempe,AZ,33.394067,-111.92873,-7,0,"33.394067, -111.92873"
313,47728,Evansville,IN,37.997128,-87.57496299999998,-6,1,"37.997128, -87.574963"
314,12528,Highland,NY,41.713682,-73.99649999999998,-5,1,"41.713682, -73.9965"
315,40222,Louisville,KY,38.26507,-85.61319,-5,1,"38.26507, -85.61319"
316,33689,Tampa,FL,27.871964,-82.43884099999998,-5,1,"27.871964, -82.438841"
317,95317,El Nido,CA,37.127525,-120.50573999999999,-8,1,"37.127525, -120.50574"
318,39460,Moss,MS,32.013235,-89.11656,-6,1,"32.013235, -89.11656"
319,89438,Valmy,NV,41.263287,-118.174506,-8,1,"41.263287, -118.174506"
320,98816,Chelan,WA,47.880774,-120.08379,-8,1,"47.880774, -120.08379"
321,15853,Ridgway,PA,41.420778,-78.74776,-5,1,"41.420778, -78.74776"
322,6472,Northford,CT,41.399873,-72.77975,-5,1,"41.399873, -72.77975"
323,43721,Brownsville,OH,39.946713,-82.25642,-5,1,"39.946713, -82.25642"
324,19559,Strausstown,PA,40.492053,-76.1841,-5,1,"40.492053, -76.1841"
325,91206,Glendale,CA,34.156674,-118.22936999999999,-8,1,"34.156674, -118.22937"
326,50557,Lehigh,IA,42.358466,-94.05829,-6,1,"42.358466, -94.05829"
327,24463,Mint Spring,VA,38.064112,-79.10979,-5,1,"38.064112, -79.10979"
328,39283,Jackson,MS,32.311287,-90.397157,-6,1,"32.311287, -90.397157"
329,42729,Cub Run,KY,37.304661,-86.12986999999998,-6,1,"37.304661, -86.12987"
330,75258,Dallas,TX,32.767268,-96.777626,-6,1,"32.767268, -96.777626"
331,55072,Sandstone,MN,46.131798,-92.71377,-6,1,"46.131798, -92.71377"
332,90665,Pico Rivera,CA,33.786594,-118.298662,-8,1,"33.786594, -118.298662"
333,29059,Holly Hill,SC,33.332666,-80.42251,-5,1,"33.332666, -80.42251"
334,51101,Sioux City,IA,42.493559,-96.39562,-6,1,"42.493559, -96.39562"
335,77060,Houston,TX,29.933367,-95.39916,-6,1,"29.933367, -95.39916"
336,8802,Asbury,NJ,40.661172,-75.0321,-5,1,"40.661172, -75.0321"
337,2475,Arlington Heights,MA,42.446396,-71.459405,-5,1,"42.446396, -71.459405"
338,37037,Christiana,TN,35.702877,-86.35133999999998,-6,1,"35.702877, -86.35134"
339,63560,Pollock,MO,40.367584,-93.11823,-6,1,"40.367584, -93.11823"
340,28164,Stanley,NC,35.377576,-81.07237999999998,-5,1,"35.377576, -81.07238"
341,68061,Tekamah,NE,41.783203,-96.21577,-6,1,"41.783203, -96.21577"
342,11042,New Hyde Park,NY,40.760128,-73.69379,-5,1,"40.760128, -73.69379"
343,20578,Washington,DC,38.893311,-77.01464699999998,-5,1,"38.893311, -77.014647"
344,27855,Murfreesboro,NC,36.432993,-77.10286999999998,-5,1,"36.432993, -77.10287"
345,55436,Minneapolis,MN,44.903864,-93.37056,-6,1,"44.903864, -93.37056"
346,15661,Loyalhanna,PA,40.319956,-79.35901,-5,1,"40.319956, -79.35901"
347,43551,Perrysburg,OH,41.540724,-83.58903999999998,-5,1,"41.540724, -83.58904"
348,76908,Goodfellow AFB,TX,31.39577,-100.68959,-6,1,"31.39577, -100.68959"
349,61728,Colfax,IL,40.56944,-88.62726999999998,-6,1,"40.56944, -88.62727"
350,55432,Minneapolis,MN,45.095674,-93.25336,-6,1,"45.095674, -93.25336"
351,3220,Belmont,NH,43.459555,-71.47352,-5,1,"43.459555, -71.47352"
352,3278,Warner,NH,43.283838,-71.82537000000002,-5,1,"43.283838, -71.82537"
353,24715,Bramwell,WV,37.335297,-81.31112,-5,1,"37.335297, -81.31112"
354,65302,Sedalia,MO,38.724577,-93.281672,-6,1,"38.724577, -93.281672"
355,16531,Erie,PA,42.182748,-80.064915,-5,1,"42.182748, -80.064915"
356,92365,Newberry Springs,CA,34.896333,-116.63644,-8,1,"34.896333, -116.63644"
357,95605,West Sacramento,CA,38.592155,-121.52805,-8,1,"38.592155, -121.52805"
358,99923,Hyder,AK,55.941442,-130.0545,-9,1,"55.941442, -130.0545"
359,65066,Owensville,MO,38.33895,-91.49522,-6,1,"38.33895, -91.49522"
360,88232,Hagerman,NM,33.060827,-104.33708,-7,1,"33.060827, -104.33708"
361,76681,Richland,TX,31.908690000000004,-96.40744,-6,1,"31.90869, -96.40744"
362,22501,Ladysmith,VA,38.015899,-77.559298,-5,1,"38.015899, -77.559298"
363,50265,West Des Moines,IA,41.570916,-93.73568,-6,1,"41.570916, -93.73568"
364,20839,Beallsville,MD,39.1672,-77.41410999999998,-5,1,"39.1672, -77.41411"
365,44003,Andover,OH,41.611348,-80.5622,-5,1,"41.611348, -80.5622"
366,29391,Duncan,SC,34.888237,-81.96902,-5,1,"34.888237, -81.96902"
367,28906,Murphy,NC,35.091332,-84.09018,-5,1,"35.091332, -84.09018"
368,73835,Camargo,OK,35.986173,-99.23866,-6,1,"35.986173, -99.23866"
369,22908,Charlottesville,VA,38.040101,-78.485066,-5,1,"38.040101, -78.485066"
370,86446,Mohave Valley,AZ,34.849946,-114.591728,-7,0,"34.849946, -114.591728"
371,55053,Nerstrand,MN,44.338132,-93.05543,-6,1,"44.338132, -93.05543"
372,29929,Islandton,SC,32.934459,-80.91937,-5,1,"32.934459, -80.91937"
373,1259,Southfield,MA,42.0645,-73.24674,-5,1,"42.0645, -73.24674"
374,57799,Spearfish,SD,44.492688,-103.86974,-7,1,"44.492688, -103.86974"
375,95443,Glenhaven,CA,39.03276,-122.74082,-8,1,"39.03276, -122.74082"
376,61258,Hooppole,IL,41.522044,-89.91216,-6,1,"41.522044, -89.91216"
377,55910,Altura,MN,44.128262,-91.95965,-6,1,"44.128262, -91.95965"
378,661,Humacao,PR,18.150829,-65.826595,-4,0,"18.150829, -65.826595"
379,73197,Oklahoma City,OK,35.551409,-97.407537,-6,1,"35.551409, -97.407537"
380,20170,Herndon,VA,38.977109,-77.38527,-5,1,"38.977109, -77.38527"
381,62056,Litchfield,IL,39.179875,-89.65721,-6,1,"39.179875, -89.65721"
382,95518,Arcata,CA,40.881383,-123.984232,-8,1,"40.881383, -123.984232"
383,60691,Chicago,IL,41.811929,-87.68732,-6,1,"41.811929, -87.68732"
384,30607,Athens,GA,34.013154,-83.43564999999998,-5,1,"34.013154, -83.43565"
385,80929,Colorado Springs,CO,38.831149,-104.65178,-7,1,"38.831149, -104.65178"
386,72042,De Witt,AR,34.283347,-91.32515,-6,1,"34.283347, -91.32515"
387,42123,Austin,KY,36.820727,-86.00112,-6,1,"36.820727, -86.00112"
388,78330,Agua Dulce,TX,27.782267,-97.90134,-6,1,"27.782267, -97.90134"
389,47997,Yeoman,IN,40.667985,-86.72249999999998,-5,0,"40.667985, -86.7225"
390,46222,Indianapolis,IN,39.786793,-86.21093,-5,0,"39.786793, -86.21093"
391,13083,Lacona,NY,43.647881,-76.0167,-5,1,"43.647881, -76.0167"
392,62677,Pleasant Plains,IL,39.847253,-89.88059,-6,1,"39.847253, -89.88059"
393,75941,Diboll,TX,31.195633,-94.77725,-6,1,"31.195633, -94.77725"
394,78071,Three Rivers,TX,28.492487,-98.1764,-6,1,"28.492487, -98.1764"
395,94556,Moraga,CA,37.839426,-122.12426,-8,1,"37.839426, -122.12426"
396,56460,Itasca,MN,47.239049,-95.265379,-6,1,"47.239049, -95.265379"
397,63875,Rives,MO,36.313319,-90.165758,-6,1,"36.313319, -90.165758"
398,17569,Reinholds,PA,40.264733,-76.09645,-5,1,"40.264733, -76.09645"
399,71354,Monterey,LA,31.381317,-91.76914,-6,1,"31.381317, -91.76914"
400,2827,Greene,RI,41.695419,-71.74472,-5,1,"41.695419, -71.74472"
401,15132,McKeesport,PA,40.341919,-79.84791,-5,1,"40.341919, -79.84791"
402,27967,Powellsville,NC,36.234231,-76.94686,-5,1,"36.234231, -76.94686"
403,24026,Roanoke,VA,37.274175,-79.95785999999998,-5,1,"37.274175, -79.95786"
404,71971,Umpire,AR,34.299569,-94.03479,-6,1,"34.299569, -94.03479"
405,93063,Simi Valley,CA,34.279343,-118.69607,-8,1,"34.279343, -118.69607"
406,64154,Kansas City,MO,39.261679,-94.63353,-6,1,"39.261679, -94.63353"
407,89452,Incline Village,NV,39.259103,-119.956585,-8,1,"39.259103, -119.956585"
408,71232,Delhi,LA,32.438621,-91.50809,-6,1,"32.438621, -91.50809"
409,39752,Mathiston,MS,33.54549,-89.13632,-6,1,"33.54549, -89.13632"
410,49279,Sand Creek,MI,41.791959,-84.10866,-5,1,"41.791959, -84.10866"
411,50453,Leland,IA,43.363881,-93.64680000000001,-6,1,"43.363881, -93.6468"
412,94244,Sacramento,CA,38.377411,-121.444429,-8,1,"38.377411, -121.444429"
413,50010,Ames,IA,42.02933,-93.60966,-6,1,"42.02933, -93.60966"
414,44191,Cleveland,OH,41.685744,-81.672797,-5,1,"41.685744, -81.672797"
415,8314,Delmont,NJ,39.219301,-74.94016,-5,1,"39.219301, -74.94016"
416,94024,Los Altos,CA,37.353741,-122.08717,-8,1,"37.353741, -122.08717"
417,48737,Glennie,MI,44.54684,-83.70977,-5,1,"44.54684, -83.70977"
418,89318,McGill,NV,39.4163,-114.77623999999999,-8,1,"39.4163, -114.77624"
419,14427,Castile,NY,42.63529,-78.05135,-5,1,"42.63529, -78.05135"
420,85752,Tucson,AZ,31.970131,-111.890713,-7,0,"31.970131, -111.890713"
421,35501,Jasper,AL,33.828412,-87.27632,-6,1,"33.828412, -87.27632"
422,92423,San Bernardino,CA,34.839964,-115.967051,-8,1,"34.839964, -115.967051"
423,14571,Waterport,NY,43.34653,-78.25412,-5,1,"43.34653, -78.25412"
424,91376,Agoura Hills,CA,33.786594,-118.298662,-8,1,"33.786594, -118.298662"
425,73853,Mutual,OK,36.223999,-99.12370000000001,-6,1,"36.223999, -99.1237"
426,63196,Saint Louis,MO,38.6531,-90.243462,-6,1,"38.6531, -90.243462"
427,12878,Stony Creek,NY,43.426652,-73.96174,-5,1,"43.426652, -73.96174"
428,47954,Ladoga,IN,39.903358,-86.80388,-5,0,"39.903358, -86.80388"
429,12307,Schenectady,NY,42.804076,-73.93571,-5,1,"42.804076, -73.93571"
430,64783,Schell City,MO,38.005777,-94.10004,-6,1,"38.005777, -94.10004"
431,19501,Adamstown,PA,40.241588,-76.05764999999998,-5,1,"40.241588, -76.05765"
432,18401,Aldenville,PA,41.615989,-75.274708,-5,1,"41.615989, -75.274708"
433,77874,Waller,TX,30.049881,-95.929015,-6,1,"30.049881, -95.929015"
434,15210,Pittsburgh,PA,40.409219,-79.98948,-5,1,"40.409219, -79.98948"
435,95689,Volcano,CA,38.473857,-120.59421,-8,1,"38.473857, -120.59421"
436,46310,Demotte,IN,41.179017,-87.24265,-6,1,"41.179017, -87.24265"
437,59442,Fort Benton,MT,47.83055,-110.64868999999999,-7,1,"47.83055, -110.64869"
438,28335,Dunn,NC,35.350774,-78.62536199999998,-5,1,"35.350774, -78.625362"
439,74764,Valliant,OK,34.038794,-95.07793,-6,1,"34.038794, -95.07793"
440,48467,Port Austin,MI,44.023181,-83.00241,-5,1,"44.023181, -83.00241"
441,83877,Post Falls,ID,47.678798,-116.682718,-8,1,"47.678798, -116.682718"
442,27019,Germanton,NC,36.297049,-80.23777,-5,1,"36.297049, -80.23777"
443,56361,Parkers Prairie,MN,46.156758,-95.33754,-6,1,"46.156758, -95.33754"
444,60613,Chicago,IL,41.953256,-87.66289999999998,-6,1,"41.953256, -87.6629"
445,30095,Duluth,GA,34.025598,-84.13044999999998,-5,1,"34.025598, -84.13045"
446,37722,Cosby,TN,35.820011,-83.24441,-5,1,"35.820011, -83.24441"
447,98930,Grandview,WA,46.260129,-119.90614,-8,1,"46.260129, -119.90614"
448,44334,Akron,OH,41.128705,-81.53999,-5,1,"41.128705, -81.53999"
449,67060,Haysville,KS,37.552425,-97.34785,-6,1,"37.552425, -97.34785"
450,12229,Albany,NY,42.614852,-73.97081199999998,-5,1,"42.614852, -73.970812"
451,56136,Hendricks,MN,44.512114,-96.41157,-6,1,"44.512114, -96.41157"
452,51366,Webb,IA,42.951621,-95.01145,-6,1,"42.951621, -95.01145"
453,33511,Brandon,FL,27.911201,-82.29479999999998,-5,1,"27.911201, -82.2948"
454,99360,Touchet,WA,46.059286,-118.67263999999999,-8,1,"46.059286, -118.67264"
455,97038,Molalla,OR,45.10799,-122.56555,-8,1,"45.10799, -122.56555"
456,68367,Gresham,NE,41.03937,-97.39671000000001,-6,1,"41.03937, -97.39671"
457,78738,Austin,TX,30.340111,-97.98869,-6,1,"30.340111, -97.98869"
458,38588,Whitleyville,TN,36.456113,-85.72381,-6,1,"36.456113, -85.72381"
459,64068,Liberty,MO,39.246179,-94.41763,-6,1,"39.246179, -94.41763"
460,39160,Sallis,MS,33.002813,-89.75296,-6,1,"33.002813, -89.75296"
461,24142,Radford,VA,37.138427,-80.55030999999998,-5,1,"37.138427, -80.55031"
462,61771,Secor,IL,40.738973,-89.13579,-6,1,"40.738973, -89.13579"
463,53086,Slinger,WI,43.33278,-88.27907,-6,1,"43.33278, -88.27907"
464,36310,Abbeville,AL,31.599256,-85.2094,-6,1,"31.599256, -85.2094"
465,72379,Snow Lake,AR,34.044682,-91.0194,-6,1,"34.044682, -91.0194"
466,97631,Monmouth,OR,44.855049,-123.237656,-8,1,"44.855049, -123.237656"
467,20221,Washington,DC,38.893311,-77.01464699999998,-5,1,"38.893311, -77.014647"
468,20895,Kensington,MD,39.027259,-77.07745,-5,1,"39.027259, -77.07745"
469,29734,Rock Hill,SC,34.992612,-81.178712,-5,1,"34.992612, -81.178712"
470,93603,Badger,CA,36.678073,-118.9601,-8,1,"36.678073, -118.9601"
471,43058,Newark,OH,40.095148,-82.482659,-5,1,"40.095148, -82.482659"
472,33917,North Fort Myers,FL,26.711647,-81.86499999999998,-5,1,"26.711647, -81.865"
473,75705,Tyler,TX,32.364281,-95.08971,-6,1,"32.364281, -95.08971"
474,13357,Ilion,NY,42.992323,-75.06149999999998,-5,1,"42.992323, -75.0615"
475,93647,Orosi,CA,36.565252,-119.24273,-8,1,"36.565252, -119.24273"
476,43985,Holloway,OH,40.011338,-80.970135,-5,1,"40.011338, -80.970135"
477,49415,Fruitport,MI,43.135994,-86.13348,-5,1,"43.135994, -86.13348"
478,12974,Port Henry,NY,44.041901,-73.46132,-5,1,"44.041901, -73.46132"
479,14066,Gainesville,NY,42.619549,-78.16153,-5,1,"42.619549, -78.16153"
480,27636,Raleigh,NC,35.797692,-78.625265,-5,1,"35.797692, -78.625265"
481,62444,Mode,IL,39.272317,-88.75932,-6,1,"39.272317, -88.75932"
482,17316,East Berlin,PA,39.965131,-77.00862999999998,-5,1,"39.965131, -77.00863"
483,77611,Bridge City,TX,30.026093,-93.84071,-6,1,"30.026093, -93.84071"
484,3233,Elkins,NH,43.423484,-71.93648,-5,1,"43.423484, -71.93648"
485,13787,Harpursville,NY,42.197905,-75.65577999999998,-5,1,"42.197905, -75.65578"
486,78402,Corpus Christi,TX,27.829732,-97.4016,-6,1,"27.829732, -97.4016"
487,82426,Greybull,WY,44.500759,-108.03102,-7,1,"44.500759, -108.03102"
488,79946,El Paso,TX,31.694842,-106.29998700000002,-7,1,"31.694842, -106.299987"
489,94606,Oakland,CA,37.793177,-122.24351999999999,-8,1,"37.793177, -122.24352"
490,43528,Holland,OH,41.626651,-83.73046999999998,-5,1,"41.626651, -83.73047"
491,32052,Jasper,FL,30.491893,-82.94875999999998,-5,1,"30.491893, -82.94876"
492,83799,Boise,ID,43.459855,-116.24398400000001,-7,1,"43.459855, -116.243984"
493,67516,Bazine,KS,38.400425,-99.68699,-6,1,"38.400425, -99.68699"
494,53521,Brooklyn,WI,42.839241,-89.40088,-6,1,"42.839241, -89.40088"
495,56160,Odin,MN,43.847252,-94.77124,-6,1,"43.847252, -94.77124"
496,50112,Grinnell,IA,41.736434,-92.72123,-6,1,"41.736434, -92.72123"
497,41121,Argillite,KY,38.456608,-82.82615,-5,1,"38.456608, -82.82615"
498,73561,Oscar,OK,34.023916,-97.64801000000001,-6,1,"34.023916, -97.64801"
499,47426,Clear Creek,IN,39.173234,-86.501543,-5,0,"39.173234, -86.501543"
500,58554,Mandan,ND,46.812148,-100.90891,-6,1,"46.812148, -100.90891"
501,33129,Miami,FL,25.757227,-80.20655999999998,-5,1,"25.757227, -80.20656"
502,39428,Collins,MS,31.651487,-89.56525,-6,1,"31.651487, -89.56525"
503,45439,Dayton,OH,39.695702,-84.21688,-5,1,"39.695702, -84.21688"
504,45782,Trimble,OH,39.483798,-82.07787999999998,-5,1,"39.483798, -82.07788"
505,28384,Saint Pauls,NC,34.804654,-78.9594,-5,1,"34.804654, -78.9594"
506,67003,Anthony,KS,37.144088,-98.03857,-6,1,"37.144088, -98.03857"
507,52158,Marquette,IA,43.042838,-91.18417,-6,1,"43.042838, -91.18417"
508,80546,Severance,CO,40.524987,-104.850544,-7,1,"40.524987, -104.850544"
509,12930,Dickinson Center,NY,44.731571,-74.53485,-5,1,"44.731571, -74.53485"
510,10706,Hastings On Hudson,NY,40.992084,-73.8729,-5,1,"40.992084, -73.8729"
511,67478,Simpson,KS,39.384449,-97.93323,-6,1,"39.384449, -97.93323"
512,23517,Norfolk,VA,36.870197,-76.29271,-5,1,"36.870197, -76.29271"
513,45408,Dayton,OH,39.741558,-84.22361999999998,-5,1,"39.741558, -84.22362"
514,38923,Coila,MS,33.368238,-89.99776,-6,1,"33.368238, -89.99776"
515,48079,Saint Clair,MI,42.833034,-82.50425,-5,1,"42.833034, -82.50425"
516,57330,Delmont,SD,43.261271,-98.16163,-6,1,"43.261271, -98.16163"
517,31534,Douglas,GA,31.571596000000003,-82.854631,-5,1,"31.571596, -82.854631"
518,68316,Benedict,NE,41.014534,-97.60967,-6,1,"41.014534, -97.60967"
519,56003,Mankato,MN,44.184909,-94.04244000000001,-6,1,"44.184909, -94.04244"
520,1529,Millville,MA,42.036396,-71.57798,-5,1,"42.036396, -71.57798"
521,85628,Nogales,AZ,31.531998,-110.909305,-7,0,"31.531998, -110.909305"
522,62348,Lima,IL,40.180236,-91.37791,-6,1,"40.180236, -91.37791"
523,47735,Evansville,IN,37.997128,-87.57496299999998,-6,1,"37.997128, -87.574963"
524,68349,Elmwood,NE,40.837204,-96.29537,-6,1,"40.837204, -96.29537"
525,31498,Savannah,GA,31.971394,-81.07156,-5,1,"31.971394, -81.07156"
526,88332,La Luz,NM,32.980058,-105.938768,-7,1,"32.980058, -105.938768"
527,28617,Crumpler,NC,36.488377,-81.39224,-5,1,"36.488377, -81.39224"
528,18032,Catasauqua,PA,40.657089,-75.47123,-5,1,"40.657089, -75.47123"
529,77872,North Zulch,TX,30.892212,-96.10346,-6,1,"30.892212, -96.10346"
530,59424,Coffee Creek,MT,47.383325,-110.02055,-7,1,"47.383325, -110.02055"
531,26070,Wellsburg,WV,40.266698,-80.59708999999998,-5,1,"40.266698, -80.59709"
532,94303,Palo Alto,CA,37.449888,-122.12749,-8,1,"37.449888, -122.12749"
533,61270,Morrison,IL,41.819003,-89.96622999999998,-6,1,"41.819003, -89.96623"
534,4353,Whitefield,ME,44.209878,-69.60427,-5,1,"44.209878, -69.60427"
535,52651,Stockport,IA,40.87657,-91.81242,-6,1,"40.87657, -91.81242"
536,74963,Watson,OK,34.37769,-94.55278,-6,1,"34.37769, -94.55278"
537,14788,Westons Mills,NY,42.062125,-78.37797399999998,-5,1,"42.062125, -78.377974"
538,45326,Fletcher,OH,40.144131,-84.10429,-5,1,"40.144131, -84.10429"
539,58270,Park River,ND,48.39642,-97.78025,-6,1,"48.39642, -97.78025"
540,77419,Blessing,TX,28.872088,-96.2316,-6,1,"28.872088, -96.2316"
541,4743,Fort Kent,ME,47.209541,-68.57238,-5,1,"47.209541, -68.57238"
542,57040,Lesterville,SD,43.060656,-97.58708,-6,1,"43.060656, -97.58708"
543,8648,Trenton,NJ,40.276782,-74.72951,-5,1,"40.276782, -74.72951"
544,3862,North Hampton,NH,42.97778,-70.83055,-5,1,"42.97778, -70.83055"
545,99550,Port Lions,AK,57.867089,-152.88568,-9,1,"57.867089, -152.88568"
546,18765,Wilkes Barre,PA,41.272248,-75.88014599999998,-5,1,"41.272248, -75.880146"
547,32692,Suwannee,FL,29.330426,-83.14400999999998,-5,1,"29.330426, -83.14401"
548,54651,Ontario,WI,43.740893,-90.56934,-6,1,"43.740893, -90.56934"
549,68752,Meadow Grove,NE,41.995961,-97.70788,-6,1,"41.995961, -97.70788"
550,90202,Bell Gardens,CA,33.786594,-118.298662,-8,1,"33.786594, -118.298662"
551,77091,Houston,TX,29.852975,-95.43586,-6,1,"29.852975, -95.43586"
552,29250,Columbia,SC,34.005992,-80.970766,-5,1,"34.005992, -80.970766"
553,22302,Alexandria,VA,38.829512,-77.08204,-5,1,"38.829512, -77.08204"
554,28540,Jacksonville,NC,34.755669,-77.4559,-5,1,"34.755669, -77.4559"
555,53115,Delavan,WI,42.63427,-88.6383,-6,1,"42.63427, -88.6383"
556,45334,Jackson Center,OH,40.446467,-84.04389,-5,1,"40.446467, -84.04389"
557,71754,Magnolia,AR,33.242571,-93.22996,-6,1,"33.242571, -93.22996"
558,92504,Riverside,CA,33.926315,-117.40937,-8,1,"33.926315, -117.40937"
559,52099,Dubuque,IA,42.484861,-90.804116,-6,1,"42.484861, -90.804116"
560,38868,Shannon,MS,34.122101,-88.72967,-6,1,"34.122101, -88.72967"
561,52595,University Park,IA,41.286619,-92.61893,-6,1,"41.286619, -92.61893"
562,52751,Grand Mound,IA,41.836317,-90.67008000000001,-6,1,"41.836317, -90.67008"
563,23413,Nassawadox,VA,37.452186,-75.84523,-5,1,"37.452186, -75.84523"
564,79910,El Paso,TX,31.694842,-106.29998700000002,-7,1,"31.694842, -106.299987"
565,55170,Saint Paul,MN,45.005902,-93.105869,-6,1,"45.005902, -93.105869"
566,4558,Pemaquid,ME,43.893848,-69.52041,-5,1,"43.893848, -69.52041"
567,38026,Memphis,TN,35.132219,-90.047966,-6,1,"35.132219, -90.047966"
568,53538,Fort Atkinson,WI,42.924942,-88.84813,-6,1,"42.924942, -88.84813"
569,39464,Ovett,MS,31.487531,-89.05842,-6,1,"31.487531, -89.05842"
570,1376,Turners Falls,MA,42.609425,-72.54438,-5,1,"42.609425, -72.54438"
571,33945,Pineland,FL,26.59951,-82.22166,-5,1,"26.59951, -82.22166"
572,48886,Six Lakes,MI,43.426703,-85.14998,-5,1,"43.426703, -85.14998"
573,56681,Squaw Lake,MN,47.617774,-94.24098,-6,1,"47.617774, -94.24098"
574,15279,Pittsburgh,PA,40.434436,-80.024817,-5,1,"40.434436, -80.024817"
575,40464,Parksville,KY,37.55081,-84.90009,-5,1,"37.55081, -84.90009"
576,97622,Bly,OR,42.334534,-120.97636999999999,-8,1,"42.334534, -120.97637"
577,50064,Dana,IA,42.114858,-94.23112,-6,1,"42.114858, -94.23112"
578,31747,Ellenton,GA,31.176563,-83.58800999999998,-5,1,"31.176563, -83.58801"
579,76070,Nemo,TX,32.259829,-97.65485,-6,1,"32.259829, -97.65485"
580,84185,Salt Lake City,UT,40.668068,-111.90829699999999,-7,1,"40.668068, -111.908297"
581,27480,Greensboro,NC,36.080707,-80.0244,-5,1,"36.080707, -80.0244"
582,80480,Walden,CO,40.621621,-106.24457,-7,1,"40.621621, -106.24457"
583,78416,Corpus Christi,TX,27.752356,-97.43465,-6,1,"27.752356, -97.43465"
584,6024,East Canaan,CT,42.010733,-73.26877,-5,1,"42.010733, -73.26877"
585,14527,Penn Yan,NY,42.664079,-77.05664,-5,1,"42.664079, -77.05664"
586,41344,Lerose,KY,37.502641,-83.62117,-5,1,"37.502641, -83.62117"
587,71221,Bastrop,LA,32.823863,-91.843528,-6,1,"32.823863, -91.843528"
588,46048,Ingalls,IN,39.95634,-85.80252,-5,0,"39.95634, -85.80252"
589,28652,Minneapolis,NC,36.086466,-81.93426499999998,-5,1,"36.086466, -81.934265"
590,78731,Austin,TX,30.344305,-97.7638,-6,1,"30.344305, -97.7638"
591,68950,Holstein,NE,40.465821,-98.65405,-6,1,"40.465821, -98.65405"
592,96222,Cottonwood,CA,40.385673,-122.279739,-8,1,"40.385673, -122.279739"
593,43791,White Cottage,OH,39.855474,-82.11492,-5,1,"39.855474, -82.11492"
594,55171,Saint Paul,MN,45.005902,-93.105869,-6,1,"45.005902, -93.105869"
595,18917,Dublin,PA,40.37327,-75.20246,-5,1,"40.37327, -75.20246"
596,11414,Howard Beach,NY,40.658188,-73.84321,-5,1,"40.658188, -73.84321"
597,42460,Sullivan,KY,37.493997,-87.93277299999998,-6,1,"37.493997, -87.932773"
598,62002,Alton,IL,38.906065,-90.15909,-6,1,"38.906065, -90.15909"
599,46377,Shelby,IN,41.191665,-87.34695,-6,1,"41.191665, -87.34695"
600,99103,Almira,WA,47.721863,-118.95553999999998,-8,1,"47.721863, -118.95554"
601,73529,Comanche,OK,34.372622,-97.97809,-6,1,"34.372622, -97.97809"
602,16685,Todd,PA,40.273559,-78.07926,-5,1,"40.273559, -78.07926"
603,22812,Bridgewater,VA,38.398049,-79.00071,-5,1,"38.398049, -79.00071"
604,46142,Greenwood,IN,39.62068,-86.15125999999998,-5,0,"39.62068, -86.15126"
605,71644,Grady,AR,34.110042,-91.70488,-6,1,"34.110042, -91.70488"
606,35063,Empire,AL,33.805216,-87.00192,-6,1,"33.805216, -87.00192"
607,72421,Cash,AR,35.786094,-90.97073,-6,1,"35.786094, -90.97073"
608,99722,Arctic Village,AK,68.121828,-145.52768,-9,1,"68.121828, -145.52768"
609,50449,Klemme,IA,43.002473,-93.58292,-6,1,"43.002473, -93.58292"
610,20643,Ironsides,MD,38.503876,-77.148283,-5,1,"38.503876, -77.148283"
611,36530,Elberta,AL,30.377657,-87.56158999999998,-6,1,"30.377657, -87.56159"
612,49003,Kalamazoo,MI,42.245412,-85.529858,-5,1,"42.245412, -85.529858"
613,37190,Woodbury,TN,35.813335,-86.05538,-6,1,"35.813335, -86.05538"
614,95211,Stockton,CA,37.981073,-121.308008,-8,1,"37.981073, -121.308008"
615,73851,May,OK,36.614425,-99.77153,-6,1,"36.614425, -99.77153"
616,74533,Caney,OK,34.217672,-96.19634,-6,1,"34.217672, -96.19634"
617,38548,Buffalo Valley,TN,36.163234,-85.78986999999998,-6,1,"36.163234, -85.78987"
618,50527,Curlew,IA,42.973868,-94.78269,-6,1,"42.973868, -94.78269"
619,20591,Washington,DC,38.893311,-77.01464699999998,-5,1,"38.893311, -77.014647"
620,18020,Bethlehem,PA,40.656498,-75.32938,-5,1,"40.656498, -75.32938"
621,51346,Hartley,IA,43.183038,-95.46787,-6,1,"43.183038, -95.46787"
622,2568,Vineyard Haven,MA,41.451263,-70.60872000000002,-5,1,"41.451263, -70.60872"
623,99371,Washtucna,WA,46.782783,-118.2869,-8,1,"46.782783, -118.2869"
624,4016,Center Lovell,ME,44.180965,-70.891727,-5,1,"44.180965, -70.891727"
625,20719,Bowie,MD,38.833563,-76.87774299999998,-5,1,"38.833563, -76.877743"
626,31783,Rebecca,GA,31.767986,-83.47324999999998,-5,1,"31.767986, -83.47325"
627,14461,Gorham,NY,42.808127,-77.287611,-5,1,"42.808127, -77.287611"
628,54940,Fremont,WI,44.237843,-88.84998,-6,1,"44.237843, -88.84998"
629,25870,Maben,WV,37.67337,-81.42001,-5,1,"37.67337, -81.42001"
630,56341,Holmes City,MN,45.830998,-95.541618,-6,1,"45.830998, -95.541618"
631,76077,Rainbow,TX,32.28122,-97.70927,-6,1,"32.28122, -97.70927"
632,24856,Leckie,WV,37.343452,-81.40244,-5,1,"37.343452, -81.40244"
633,11770,Ocean Beach,NY,40.643951,-73.16115,-5,1,"40.643951, -73.16115"
634,64172,Kansas City,MO,39.035038,-94.356728,-6,1,"39.035038, -94.356728"
635,57350,Huron,SD,44.377801,-98.20936,-6,1,"44.377801, -98.20936"
636,37919,Knoxville,TN,35.922881,-84.00383999999998,-5,1,"35.922881, -84.00384"
637,85070,Phoenix,AZ,33.276539,-112.18717,-7,0,"33.276539, -112.18717"
638,23249,Richmond,VA,37.524246,-77.49315699999998,-5,1,"37.524246, -77.493157"
639,56152,Lamberton,MN,44.227021,-95.28014,-6,1,"44.227021, -95.28014"
640,92285,Landers,CA,34.31039,-116.45012,-8,1,"34.31039, -116.45012"
641,1001,Agawam,MA,42.07061,-72.62028999999998,-5,1,"42.07061, -72.62029"
642,75666,Laird Hill,TX,32.301898,-94.928795,-6,1,"32.301898, -94.928795"
643,83213,Arco,ID,43.65183,-113.31638999999998,-7,1,"43.65183, -113.31639"
644,77345,Humble,TX,30.062436,-95.16945,-6,1,"30.062436, -95.16945"
645,16611,Alexandria,PA,40.561651,-78.10582999999998,-5,1,"40.561651, -78.10583"
646,79102,Amarillo,TX,35.197852,-101.84543,-6,1,"35.197852, -101.84543"
647,68456,Utica,NE,40.898329,-97.32084,-6,1,"40.898329, -97.32084"
648,40915,Bimble,KY,36.887081,-83.81552,-5,1,"36.887081, -83.81552"
649,72007,Austin,AR,34.998573,-91.98417,-6,1,"34.998573, -91.98417"
650,68845,Kearney,NE,40.713265,-99.11839,-6,1,"40.713265, -99.11839"
651,43462,Rudolph,OH,41.28447,-83.69515,-5,1,"41.28447, -83.69515"
652,61516,Benson,IL,40.850381,-89.11878,-6,1,"40.850381, -89.11878"
653,93238,Kernville,CA,35.78436700000001,-118.43768999999999,-8,1,"35.784367, -118.43769"
654,24377,Tannersville,VA,37.000956,-81.54797,-5,1,"37.000956, -81.54797"
655,28583,Stonewall,NC,35.156145,-76.632264,-5,1,"35.156145, -76.632264"
656,73772,Watonga,OK,35.870276,-98.43772000000001,-6,1,"35.870276, -98.43772"
657,47856,Judson,IN,39.813543,-87.13634999999998,-5,0,"39.813543, -87.13635"
658,4004,Bar Mills,ME,43.365658,-70.604379,-5,1,"43.365658, -70.604379"
659,21673,Trappe,MD,38.662533,-76.07008999999998,-5,1,"38.662533, -76.07009"
660,1012,Chesterfield,MA,42.390836,-72.84355999999998,-5,1,"42.390836, -72.84356"
661,56170,Ruthton,MN,44.17521,-96.07363,-6,1,"44.17521, -96.07363"
662,62762,Springfield,IL,39.749457,-89.60601699999998,-6,1,"39.749457, -89.606017"
663,36761,Minter,AL,32.080532,-86.95524,-6,1,"32.080532, -86.95524"
664,84782,Veyo,UT,37.359887,-113.66976000000001,-7,1,"37.359887, -113.66976"
665,30004,Alpharetta,GA,34.119177,-84.30292,-5,1,"34.119177, -84.30292"
666,92332,Essex,CA,35.00224,-115.23936,-8,1,"35.00224, -115.23936"
667,49657,McBain,MI,44.204505,-85.17709999999998,-5,1,"44.204505, -85.1771"
668,92502,Riverside,CA,33.752886,-116.055617,-8,1,"33.752886, -116.055617"
669,82935,Green River,WY,41.659162,-109.63918999999999,-7,1,"41.659162, -109.63919"
670,77348,Huntsville,TX,30.78128,-95.59527000000001,-6,1,"30.78128, -95.59527"
671,60665,Chicago,IL,41.811929,-87.68732,-6,1,"41.811929, -87.68732"
672,66428,Goff,KS,39.671207,-95.92512,-6,1,"39.671207, -95.92512"
673,7930,Chester,NJ,40.786549,-74.68799,-5,1,"40.786549, -74.68799"
674,76824,Bend,TX,31.086845,-98.51817,-6,1,"31.086845, -98.51817"
675,13165,Waterloo,NY,42.911377,-76.87027,-5,1,"42.911377, -76.87027"
676,7922,Berkeley Heights,NJ,40.675112,-74.43459,-5,1,"40.675112, -74.43459"
677,634,Cayey,PR,18.111528,-66.177083,-4,0,"18.111528, -66.177083"
678,97106,Banks,OR,45.644591,-123.12811,-8,1,"45.644591, -123.12811"
679,67021,Byers,KS,37.784193,-98.89486,-6,1,"37.784193, -98.89486"
680,63011,Ballwin,MO,38.601403,-90.55209,-6,1,"38.601403, -90.55209"
681,84324,Mantua,UT,41.492466,-111.94275,-7,1,"41.492466, -111.94275"
682,37030,Carthage,TN,36.264959,-85.94893,-6,1,"36.264959, -85.94893"
683,39080,Harperville,MS,32.492533,-89.494585,-6,1,"32.492533, -89.494585"
684,31408,Savannah,GA,32.106705,-81.16915,-5,1,"32.106705, -81.16915"
685,39175,Utica,MS,32.105647,-90.61749,-6,1,"32.105647, -90.61749"
686,25201,Tad,WV,38.296818,-81.55465499999998,-5,1,"38.296818, -81.554655"
687,56051,Kiester,MN,43.535709,-93.71308,-6,1,"43.535709, -93.71308"
688,56592,Winger,MN,47.530842,-96.00853,-6,1,"47.530842, -96.00853"
689,6413,Clinton,CT,41.288599,-72.52728,-5,1,"41.288599, -72.52728"
690,32716,Altamonte Springs,FL,28.744752,-81.22328,-5,1,"28.744752, -81.22328"
691,85632,San Simon,AZ,32.048448,-109.19635,-7,0,"32.048448, -109.19635"
692,1832,Haverhill,MA,42.781357,-71.11023,-5,1,"42.781357, -71.11023"
693,72035,Conway,AR,35.105306,-92.354915,-6,1,"35.105306, -92.354915"
694,39113,Mayersville,MS,32.905763,-91.04272,-6,1,"32.905763, -91.04272"
695,76195,Fort Worth,TX,32.771419,-97.291484,-6,1,"32.771419, -97.291484"
696,30237,Jonesboro,GA,33.500697,-84.351273,-5,1,"33.500697, -84.351273"
697,68785,Waterbury,NE,42.437174,-96.72103000000001,-6,1,"42.437174, -96.72103"
698,62477,West Union,IL,39.229885,-87.66639999999998,-6,1,"39.229885, -87.6664"
699,98343,Joyce,WA,48.18315,-123.872972,-8,1,"48.18315, -123.872972"
700,87455,Newcomb,NM,36.272472,-108.79106999999999,-7,1,"36.272472, -108.79107"
701,70154,New Orleans,LA,30.032997,-89.882564,-6,1,"30.032997, -89.882564"
702,99353,West Richland,WA,46.297139,-119.35457,-8,1,"46.297139, -119.35457"
703,60074,Palatine,IL,42.143819,-88.02545999999998,-6,1,"42.143819, -88.02546"
704,14021,Batavia,NY,42.998052,-78.184813,-5,1,"42.998052, -78.184813"
705,83543,Nezperce,ID,46.256652,-116.24922,-8,1,"46.256652, -116.24922"
706,2726,Somerset,MA,41.754828,-71.14894,-5,1,"41.754828, -71.14894"
707,59936,West Glacier,MT,48.497774,-113.92598999999998,-7,1,"48.497774, -113.92599"
708,71419,Converse,LA,31.80442,-93.71835,-6,1,"31.80442, -93.71835"
709,14227,Buffalo,NY,42.881372,-78.74465999999998,-5,1,"42.881372, -78.74466"
710,28361,Mccain,NC,35.02363,-79.246841,-5,1,"35.02363, -79.246841"
711,35222,Birmingham,AL,33.524254,-86.77334999999998,-6,1,"33.524254, -86.77335"
712,18042,Easton,PA,40.681798,-75.22082,-5,1,"40.681798, -75.22082"
713,83530,Grangeville,ID,45.923869,-116.13146,-8,1,"45.923869, -116.13146"
714,74866,Saint Louis,OK,35.062235,-96.8355,-6,1,"35.062235, -96.8355"
715,39350,Philadelphia,MS,32.776368,-89.12788,-6,1,"32.776368, -89.12788"
716,30104,Aragon,GA,34.065792,-85.07227,-5,1,"34.065792, -85.07227"
717,6798,Woodbury,CT,41.554112,-73.20538999999998,-5,1,"41.554112, -73.20539"
718,98232,Bow,WA,48.559548,-122.41375,-8,1,"48.559548, -122.41375"
719,33776,Seminole,FL,27.853151,-82.82711999999998,-5,1,"27.853151, -82.82712"
720,7205,Hillside,NJ,40.695552,-74.22856,-5,1,"40.695552, -74.22856"
721,28098,Lowell,NC,35.267234,-81.09941999999998,-5,1,"35.267234, -81.09942"
722,12520,Cornwall On Hudson,NY,41.442589,-74.01389,-5,1,"41.442589, -74.01389"
723,62279,Renault,IL,38.153322,-90.13459,-6,1,"38.153322, -90.13459"
724,57441,Frederick,SD,45.834246,-98.51539,-6,1,"45.834246, -98.51539"
725,22642,Linden,VA,38.932178,-78.06050999999998,-5,1,"38.932178, -78.06051"
726,83686,Nampa,ID,43.529812,-116.57761,-7,1,"43.529812, -116.57761"
727,20771,Greenbelt,MD,38.833563,-76.87774299999998,-5,1,"38.833563, -76.877743"
728,74441,Hulbert,OK,35.966254,-95.15436,-6,1,"35.966254, -95.15436"
729,50208,Newton,IA,41.702148,-93.04467,-6,1,"41.702148, -93.04467"
730,68973,Roseland,NE,40.459642,-98.55892,-6,1,"40.459642, -98.55892"
731,68466,Wymore,NE,40.087289,-96.65361,-6,1,"40.087289, -96.65361"
732,43438,Kelleys Island,OH,41.601343,-82.69744,-5,1,"41.601343, -82.69744"
733,4730,Houlton,ME,46.12672,-67.87798,-5,1,"46.12672, -67.87798"
734,52243,Iowa City,IA,41.642657,-91.599974,-6,1,"41.642657, -91.599974"
735,76526,Flat,TX,31.295568,-97.582152,-6,1,"31.295568, -97.582152"
736,6234,Brooklyn,CT,41.782474,-71.95989,-5,1,"41.782474, -71.95989"
737,30392,Atlanta,GA,33.844371,-84.47405,-5,1,"33.844371, -84.47405"
738,57383,White Lake,SD,43.69412,-98.70407,-6,1,"43.69412, -98.70407"
739,37034,Chapel Hill,TN,35.639491,-86.68649999999998,-6,1,"35.639491, -86.6865"
740,42024,Barlow,KY,37.071352,-89.04326,-6,1,"37.071352, -89.04326"
741,57446,Hecla,SD,45.864171,-98.18814,-6,1,"45.864171, -98.18814"
742,23507,Norfolk,VA,36.864047,-76.29947,-5,1,"36.864047, -76.29947"
743,45367,Sidney,OH,40.333611,-84.21830799999998,-5,1,"40.333611, -84.218308"
744,20116,Marshall,VA,38.853723,-77.860127,-5,1,"38.853723, -77.860127"
745,5665,North Hyde Park,VT,44.67307,-72.597057,-5,1,"44.67307, -72.597057"
746,61845,Foosland,IL,40.376141,-88.4135,-6,1,"40.376141, -88.4135"
747,17765,Roaring Branch,PA,41.592461,-76.95077999999998,-5,1,"41.592461, -76.95078"
748,46390,Wanatah,IN,41.420078,-86.88131,-6,1,"41.420078, -86.88131"
749,59856,Paradise,MT,47.387824,-114.799,-7,1,"47.387824, -114.799"
750,47967,New Richmond,IN,40.192176,-86.98345999999998,-5,0,"40.192176, -86.98346"
751,21529,Ellerslie,MD,39.718905,-78.77684999999998,-5,1,"39.718905, -78.77685"
752,57777,Red Owl,SD,44.735001,-102.45764,-7,1,"44.735001, -102.45764"
753,17007,Boiling Springs,PA,40.14789,-77.12245,-5,1,"40.14789, -77.12245"
754,24889,Twin Branch,WV,37.375246,-81.653889,-5,1,"37.375246, -81.653889"
755,60614,Chicago,IL,41.922682,-87.65432,-6,1,"41.922682, -87.65432"
756,65601,Aldrich,MO,37.537425,-93.57069000000001,-6,1,"37.537425, -93.57069"
757,29349,Inman,SC,35.061431,-82.07523,-5,1,"35.061431, -82.07523"
758,90714,Lakewood,CA,33.851215,-118.1339,-8,1,"33.851215, -118.1339"
759,92311,Barstow,CA,34.894181,-117.03636000000002,-8,1,"34.894181, -117.03636"
760,10197,New York,NY,40.780751,-73.977182,-5,1,"40.780751, -73.977182"
761,13645,Hailesboro,NY,44.533125,-75.192865,-5,1,"44.533125, -75.192865"
762,40268,Louisville,KY,38.188962,-85.67681899999998,-5,1,"38.188962, -85.676819"
763,10976,Sparkill,NY,41.028647,-73.92816999999998,-5,1,"41.028647, -73.92817"
764,90707,Bellflower,CA,33.786594,-118.298662,-8,1,"33.786594, -118.298662"
765,20872,Damascus,MD,39.284185,-77.22752,-5,1,"39.284185, -77.22752"
766,67228,Wichita,KS,37.774174,-97.171098,-6,1,"37.774174, -97.171098"
767,70301,Thibodaux,LA,29.797776,-90.81809,-6,1,"29.797776, -90.81809"
768,21060,Glen Burnie,MD,39.162225,-76.59444,-5,1,"39.162225, -76.59444"
769,77301,Conroe,TX,30.313308,-95.45085,-6,1,"30.313308, -95.45085"
770,13846,Treadwell,NY,42.344248,-75.05323,-5,1,"42.344248, -75.05323"
771,43074,Sunbury,OH,40.270926,-82.84501,-5,1,"40.270926, -82.84501"
772,43205,Columbus,OH,39.957265,-82.96586999999998,-5,1,"39.957265, -82.96587"
773,70727,Denham Springs,LA,30.337495,-90.843449,-6,1,"30.337495, -90.843449"
774,87004,Bernalillo,NM,35.32151000000001,-106.55322,-7,1,"35.32151, -106.55322"
775,39176,Vaiden,MS,33.317882,-89.733,-6,1,"33.317882, -89.733"
776,70503,Lafayette,LA,30.185867,-92.04706,-6,1,"30.185867, -92.04706"
777,46984,Somerset,IN,40.671369,-85.828846,-5,0,"40.671369, -85.828846"
778,13603,Watertown,NY,44.030204,-75.81845,-5,1,"44.030204, -75.81845"
779,71857,Prescott,AR,33.806886,-93.36595,-6,1,"33.806886, -93.36595"
780,45459,Dayton,OH,39.644609,-84.16930999999998,-5,1,"39.644609, -84.16931"
781,43441,Lemoyne,OH,41.536132,-83.45937999999998,-5,1,"41.536132, -83.45938"
782,5827,Craftsbury Common,VT,44.678879,-72.35975,-5,1,"44.678879, -72.35975"
783,18212,Ashfield,PA,40.784095,-75.708281,-5,1,"40.784095, -75.708281"
784,60664,Chicago,IL,41.811929,-87.68732,-6,1,"41.811929, -87.68732"
785,31569,Woodbine,GA,30.915778000000003,-81.67923999999998,-5,1,"30.915778, -81.67924"
786,50665,Parkersburg,IA,42.576102,-92.78183000000001,-6,1,"42.576102, -92.78183"
787,18507,Moosic,PA,41.35838,-75.71228,-5,1,"41.35838, -75.71228"
788,77222,Houston,TX,29.833990000000004,-95.434241,-6,1,"29.83399, -95.434241"
789,11801,Hicksville,NY,40.763355,-73.52323,-5,1,"40.763355, -73.52323"
790,93463,Solvang,CA,34.608938,-120.13838,-8,1,"34.608938, -120.13838"
791,65735,Quincy,MO,38.059763,-93.48502,-6,1,"38.059763, -93.48502"
792,11769,Oakdale,NY,40.736011,-73.12959999999998,-5,1,"40.736011, -73.1296"
793,64641,Galt,MO,40.165088,-93.39425,-6,1,"40.165088, -93.39425"
794,50120,Haverhill,IA,41.940175,-92.96979,-6,1,"41.940175, -92.96979"
795,40161,Rhodelia,KY,38.005963,-86.398391,-5,1,"38.005963, -86.398391"
796,68790,Winside,NE,42.175272,-97.17016,-6,1,"42.175272, -97.17016"
797,17362,Spring Grove,PA,39.853966,-76.87182,-5,1,"39.853966, -76.87182"
798,32814,Orlando,FL,28.566338,-81.260818,-5,1,"28.566338, -81.260818"
799,15439,Gans,PA,39.771324,-79.63584199999998,-5,1,"39.771324, -79.635842"
800,74867,Sasakwa,OK,34.948211,-96.53394,-6,1,"34.948211, -96.53394"
801,95407,Santa Rosa,CA,38.404991,-122.7275,-8,1,"38.404991, -122.7275"
802,68924,Axtell,NE,40.493457,-99.11348,-6,1,"40.493457, -99.11348"
803,56237,Echo,MN,44.616243,-95.43173,-6,1,"44.616243, -95.43173"
804,28556,Merritt,NC,35.124491,-76.66594999999998,-5,1,"35.124491, -76.66595"
805,51230,Alvord,IA,43.352016,-96.30802000000001,-6,1,"43.352016, -96.30802"
806,87144,Rio Rancho,NM,35.295331,-106.645081,-7,1,"35.295331, -106.645081"
807,50936,Des Moines,IA,41.672687,-93.572173,-6,1,"41.672687, -93.572173"
808,48472,Snover,MI,43.512287,-82.96349999999998,-5,1,"43.512287, -82.9635"
809,46225,Indianapolis,IN,39.746993,-86.15903,-5,0,"39.746993, -86.15903"
810,6072,Somersville,CT,41.976466,-72.490593,-5,1,"41.976466, -72.490593"
811,21775,New Midway,MD,39.564472,-77.29468,-5,1,"39.564472, -77.29468"
812,62764,Springfield,IL,39.749457,-89.60601699999998,-6,1,"39.749457, -89.606017"
813,55332,Fairfax,MN,44.529702,-94.71718000000001,-6,1,"44.529702, -94.71718"
814,33765,Clearwater,FL,27.971362,-82.74482,-5,1,"27.971362, -82.74482"
815,84152,Salt Lake City,UT,40.728579,-111.66273000000001,-7,1,"40.728579, -111.66273"
816,36513,Calvert,AL,31.161965999999996,-87.99588,-6,1,"31.161966, -87.99588"
817,55191,Saint Paul,MN,45.005902,-93.105869,-6,1,"45.005902, -93.105869"
818,74643,Lamont,OK,36.69588,-97.56931,-6,1,"36.69588, -97.56931"
819,43830,Nashport,OH,40.063886,-82.15976999999998,-5,1,"40.063886, -82.15977"
820,32594,Pensacola,FL,30.61428,-87.275772,-6,1,"30.61428, -87.275772"
821,47704,Evansville,IN,37.997128,-87.57496299999998,-6,1,"37.997128, -87.574963"
822,11236,Brooklyn,NY,40.640527,-73.90362,-5,1,"40.640527, -73.90362"
823,96070,Obrien,CA,40.735153,-122.1944,-8,1,"40.735153, -122.1944"
824,16860,Munson,PA,40.954583,-78.16679999999998,-5,1,"40.954583, -78.1668"
825,63871,Pascola,MO,36.267825,-89.822514,-6,1,"36.267825, -89.822514"
826,65662,Grovespring,MO,37.465808,-92.58794,-6,1,"37.465808, -92.58794"
827,2661,South Harwich,MA,41.675799,-70.0396,-5,1,"41.675799, -70.0396"
828,48054,East China,MI,42.769956,-82.52594999999998,-5,1,"42.769956, -82.52595"
829,18661,White Haven,PA,41.082188,-75.75964999999998,-5,1,"41.082188, -75.75965"
830,32775,Scottsmoor,FL,28.76507,-80.87314999999998,-5,1,"28.76507, -80.87315"
831,71654,McGehee,AR,33.628723,-91.38236,-6,1,"33.628723, -91.38236"
832,11206,Brooklyn,NY,40.702348,-73.94288,-5,1,"40.702348, -73.94288"
833,24272,Nora,VA,37.008665,-82.35244,-5,1,"37.008665, -82.35244"
834,57261,Roslyn,SD,45.536715,-97.54435,-6,1,"45.536715, -97.54435"
835,27668,Raleigh,NC,35.797692,-78.625265,-5,1,"35.797692, -78.625265"
836,30101,Acworth,GA,34.052285,-84.68483,-5,1,"34.052285, -84.68483"
837,47716,Evansville,IN,37.997128,-87.57496299999998,-6,1,"37.997128, -87.574963"
838,78840,Del Rio,TX,29.404267,-100.88116,-6,1,"29.404267, -100.88116"
839,34107,Vanderbilt Beach,FL,26.14326,-81.38912399999998,-5,1,"26.14326, -81.389124"
840,16038,Harrisville,PA,41.152347,-79.9632,-5,1,"41.152347, -79.9632"
841,45032,Harveysburg,OH,39.499635,-84.00579,-5,1,"39.499635, -84.00579"
842,68653,Platte Center,NE,41.545453,-97.48974,-6,1,"41.545453, -97.48974"
843,88414,Capulin,NM,36.740696,-103.99329,-7,1,"36.740696, -103.99329"
844,81221,Coal Creek,CO,38.36154,-105.14752,-7,1,"38.36154, -105.14752"
845,55385,Stewart,MN,44.724926,-94.49346000000001,-6,1,"44.724926, -94.49346"
846,62833,Ellery,IL,38.361654,-88.16484,-6,1,"38.361654, -88.16484"
847,98857,Warden,WA,46.970666,-119.0672,-8,1,"46.970666, -119.0672"
848,87930,Arrey,NM,32.807462,-107.32655,-7,1,"32.807462, -107.32655"
849,89721,Carson City,NV,39.167833,-119.77640900000002,-8,1,"39.167833, -119.776409"
850,60128,Carol Stream,IL,41.839679,-88.088716,-6,1,"41.839679, -88.088716"
851,16915,Coudersport,PA,41.800278,-77.98905,-5,1,"41.800278, -77.98905"
852,16901,Wellsboro,PA,41.736343,-77.31914999999998,-5,1,"41.736343, -77.31915"
853,6424,East Hampton,CT,41.573008,-72.5078,-5,1,"41.573008, -72.5078"
854,20624,Clements,MD,38.330096,-76.73112999999998,-5,1,"38.330096, -76.73113"
855,68523,Lincoln,NE,40.740529,-96.76178,-6,1,"40.740529, -96.76178"
856,71658,Montrose,AR,33.323463,-91.54633,-6,1,"33.323463, -91.54633"
857,64638,Dawn,MO,39.616309,-93.62076,-6,1,"39.616309, -93.62076"
858,87017,Gallina,NM,36.187444,-106.76581000000002,-7,1,"36.187444, -106.76581"
859,33778,Largo,FL,27.885344,-82.79594,-5,1,"27.885344, -82.79594"
860,94542,Hayward,CA,37.657381,-122.05076000000001,-8,1,"37.657381, -122.05076"
861,66944,Haddam,KS,39.841886,-97.30119,-6,1,"39.841886, -97.30119"
862,46923,Delphi,IN,40.597574,-86.65296999999998,-5,0,"40.597574, -86.65297"
863,71448,Longleaf,LA,31.203393,-92.526927,-6,1,"31.203393, -92.526927"
864,12865,Salem,NY,43.200351,-73.35259999999998,-5,1,"43.200351, -73.3526"
865,1831,Haverhill,MA,42.771095,-71.12205400000002,-5,1,"42.771095, -71.122054"
866,43943,Rayland,OH,40.211142,-80.72596,-5,1,"40.211142, -80.72596"
867,40405,Bighill,KY,37.716443,-84.299699,-5,1,"37.716443, -84.299699"
868,13601,Watertown,NY,43.976735,-75.91199,-5,1,"43.976735, -75.91199"
869,12746,Huguenot,NY,41.436732,-74.64557999999998,-5,1,"41.436732, -74.64558"
870,90304,Inglewood,CA,33.936163,-118.36076000000001,-8,1,"33.936163, -118.36076"
871,29178,Whitmire,SC,34.502577,-81.60777,-5,1,"34.502577, -81.60777"
872,8750,Sea Girt,NJ,40.133754,-74.04123,-5,1,"40.133754, -74.04123"
873,92126,San Diego,CA,32.914346,-117.14116000000001,-8,1,"32.914346, -117.14116"
874,35082,Hollins,AL,33.116909,-86.16979999999998,-6,1,"33.116909, -86.1698"
875,43611,Toledo,OH,41.703379,-83.49003,-5,1,"41.703379, -83.49003"
876,60170,Plato Center,IL,42.025776,-88.425931,-6,1,"42.025776, -88.425931"
877,83827,Elk River,ID,46.779767,-116.17964,-8,1,"46.779767, -116.17964"
878,99153,Metaline Falls,WA,48.858518,-117.29833,-8,1,"48.858518, -117.29833"
879,10013,New York,NY,40.720666,-74.00526,-5,1,"40.720666, -74.00526"
880,35972,Gallant,AL,33.987653,-86.25522999999998,-6,1,"33.987653, -86.25523"
881,32577,Molino,FL,30.743945,-87.34872,-6,1,"30.743945, -87.34872"
882,85034,Phoenix,AZ,33.437772,-112.0281,-7,0,"33.437772, -112.0281"
883,62254,Lebanon,IL,38.601648,-89.81317,-6,1,"38.601648, -89.81317"
884,40283,Louisville,KY,38.188962,-85.67681899999998,-5,1,"38.188962, -85.676819"
885,43302,Marion,OH,40.589747,-83.12173,-5,1,"40.589747, -83.12173"
886,3844,Hampton Falls,NH,42.923946,-70.88666000000002,-5,1,"42.923946, -70.88666"
887,75109,Angus,TX,32.03049,-96.383005,-6,1,"32.03049, -96.383005"
888,33188,Miami,FL,25.558428,-80.458168,-5,1,"25.558428, -80.458168"
889,32413,Panama City Beach,FL,30.252615999999996,-85.90412999999998,-6,1,"30.252616, -85.90413"
890,12153,Sand Lake,NY,42.638579,-73.48050999999998,-5,1,"42.638579, -73.48051"
891,8695,Trenton,NJ,40.280531,-74.712018,-5,1,"40.280531, -74.712018"
892,73034,Edmond,OK,35.683768,-97.44686,-6,1,"35.683768, -97.44686"
893,28758,Mountain Home,NC,35.37094,-82.4945,-5,1,"35.37094, -82.4945"
894,27214,Browns Summit,NC,36.205771,-79.69839,-5,1,"36.205771, -79.69839"
895,26103,Parkersburg,WV,39.236427,-81.540501,-5,1,"39.236427, -81.540501"
896,12304,Schenectady,NY,42.779026,-73.90506999999998,-5,1,"42.779026, -73.90507"
897,36089,Union Springs,AL,32.145437,-85.70998,-6,1,"32.145437, -85.70998"
898,1071,Russell,MA,42.165931,-72.85152999999998,-5,1,"42.165931, -72.85153"
899,7645,Montvale,NJ,41.048997,-74.04052,-5,1,"41.048997, -74.04052"
900,19059,Levittown,PA,40.328645,-75.10277999999998,-5,1,"40.328645, -75.10278"
901,53080,Saukville,WI,43.394676,-87.95887,-6,1,"43.394676, -87.95887"
902,80962,Colorado Springs,CO,38.82469,-104.562027,-7,1,"38.82469, -104.562027"
903,18519,Dickson City,PA,41.46213,-75.62478,-5,1,"41.46213, -75.62478"
904,45506,Springfield,OH,39.910109,-83.83243,-5,1,"39.910109, -83.83243"
905,63163,Saint Louis,MO,38.6531,-90.243462,-6,1,"38.6531, -90.243462"
906,64037,Higginsville,MO,39.058604,-93.73366,-6,1,"39.058604, -93.73366"
907,11551,Hempstead,NY,40.754757,-73.60177199999998,-5,1,"40.754757, -73.601772"
908,5262,Shaftsbury,VT,42.977018,-73.16602,-5,1,"42.977018, -73.16602"
909,4344,Farmingdale,ME,44.26043,-69.80122,-5,1,"44.26043, -69.80122"
910,54902,Oshkosh,WI,43.988616,-88.54698999999998,-6,1,"43.988616, -88.54699"
911,38125,Memphis,TN,35.035466,-89.80329,-6,1,"35.035466, -89.80329"
912,48887,Smyrna,MI,42.944929,-85.07466499999998,-5,1,"42.944929, -85.074665"
913,60440,Bolingbrook,IL,41.703097,-88.07461999999998,-6,1,"41.703097, -88.07462"
914,15430,Dickerson Run,PA,40.040653,-79.66088999999998,-5,1,"40.040653, -79.66089"
915,48563,Markey,MI,44.407339,-84.695963,-5,1,"44.407339, -84.695963"
916,62063,Medora,IL,39.188838,-90.14654,-6,1,"39.188838, -90.14654"
917,91334,Pacoima,CA,33.786594,-118.298662,-8,1,"33.786594, -118.298662"
918,70124,New Orleans,LA,30.006003000000003,-90.10947,-6,1,"30.006003, -90.10947"
919,85224,Chandler,AZ,33.328951,-111.8735,-7,0,"33.328951, -111.8735"
920,84028,Garden City,UT,41.91021,-111.40328000000001,-7,1,"41.91021, -111.40328"
921,95958,Nelson,CA,39.556251,-121.803777,-8,1,"39.556251, -121.803777"
922,73070,Norman,OK,35.187611,-97.39750900000001,-6,1,"35.187611, -97.397509"
923,53184,Walworth,WI,42.532636,-88.59861999999998,-6,1,"42.532636, -88.59862"
924,16922,Galeton,PA,41.678935,-77.68562,-5,1,"41.678935, -77.68562"
925,10595,Valhalla,NY,41.083848,-73.77785,-5,1,"41.083848, -73.77785"
926,63022,Ballwin,MO,38.638318,-90.427118,-6,1,"38.638318, -90.427118"
927,99641,Nunapitchuk,AK,60.898967,-162.43712,-9,1,"60.898967, -162.43712"
928,17757,Wolf,PA,41.241656,-76.747251,-5,1,"41.241656, -76.747251"
929,80824,Kirk,CO,39.650653,-102.52694,-7,1,"39.650653, -102.52694"
930,72401,Jonesboro,AR,35.844795,-90.68443,-6,1,"35.844795, -90.68443"
931,62994,Vergennes,IL,37.901441,-89.33485,-6,1,"37.901441, -89.33485"
932,75473,Powderly,TX,33.801663,-95.50309,-6,1,"33.801663, -95.50309"
933,78834,Carrizo Springs,TX,28.524292,-99.83827,-6,1,"28.524292, -99.83827"
934,4014,Cape Porpoise,ME,43.365658,-70.604379,-5,1,"43.365658, -70.604379"
935,42408,Dawson Springs,KY,37.183465,-87.68412999999998,-6,1,"37.183465, -87.68413"
936,60190,Winfield,IL,41.875228,-88.15260999999998,-6,1,"41.875228, -88.15261"
937,43783,Somerset,OH,39.801679,-82.29165999999998,-5,1,"39.801679, -82.29166"
938,95648,Lincoln,CA,38.902873,-121.29795,-8,1,"38.902873, -121.29795"
939,99741,Galena,AK,64.739082,-156.89456,-9,1,"64.739082, -156.89456"
940,44505,Youngstown,OH,41.122524,-80.62043,-5,1,"41.122524, -80.62043"
941,6006,Windsor,CT,41.879637,-72.734271,-5,1,"41.879637, -72.734271"
942,72227,Little Rock,AR,34.771024,-92.37117,-6,1,"34.771024, -92.37117"
943,26339,Center Point,WV,39.42039,-80.60204,-5,1,"39.42039, -80.60204"
944,25704,Huntington,WV,38.386966,-82.49608999999998,-5,1,"38.386966, -82.49609"
945,4456,Levant,ME,44.876282,-68.98712,-5,1,"44.876282, -68.98712"
946,79082,Springlake,TX,34.209814,-102.29761,-6,1,"34.209814, -102.29761"
947,72381,Tomato,AR,35.694942,-89.966819,-6,1,"35.694942, -89.966819"
948,48744,Mayville,MI,43.34896,-83.35883,-5,1,"43.34896, -83.35883"
949,5801,White River Junction,VT,43.898246,-72.183633,-5,1,"43.898246, -72.183633"
950,98249,Freeland,WA,48.029176,-122.54222,-8,1,"48.029176, -122.54222"
951,3749,Enfield Center,NH,43.579573,-72.08540999999998,-5,1,"43.579573, -72.08541"
952,66743,Girard,KS,37.506616,-94.86078,-6,1,"37.506616, -94.86078"
953,6920,Stamford,CT,41.308873,-73.36366099999998,-5,1,"41.308873, -73.363661"
954,72140,Saint Charles,AR,34.383661,-91.15428,-6,1,"34.383661, -91.15428"
955,10573,Port Chester,NY,41.010376,-73.67326,-5,1,"41.010376, -73.67326"
956,99565,Chignik Lagoon,AK,56.307535,-158.53502,-9,1,"56.307535, -158.53502"
957,93030,Oxnard,CA,34.21707,-119.1769,-8,1,"34.21707, -119.1769"
958,71050,Longstreet,LA,32.117539,-93.913834,-6,1,"32.117539, -93.913834"
959,48727,Clifford,MI,43.314176,-83.18115,-5,1,"43.314176, -83.18115"
960,49228,Blissfield,MI,41.821595,-83.87435,-5,1,"41.821595, -83.87435"
961,14510,Mount Morris,NY,42.692608,-77.87663,-5,1,"42.692608, -77.87663"
962,77903,Victoria,TX,28.794935,-96.974119,-6,1,"28.794935, -96.974119"
963,76705,Waco,TX,31.609834,-97.08821,-6,1,"31.609834, -97.08821"
964,98252,Granite Falls,WA,48.070852,-121.82242,-8,1,"48.070852, -121.82242"
965,80913,Colorado Springs,CO,38.743871,-104.76387,-7,1,"38.743871, -104.76387"
966,49255,Montgomery,MI,41.776287,-84.83759999999998,-5,1,"41.776287, -84.8376"
967,50122,Hubbard,IA,42.30884,-93.31162,-6,1,"42.30884, -93.31162"
968,54519,Conover,WI,46.040996,-89.28591,-6,1,"46.040996, -89.28591"
969,7099,Kearny,NJ,40.73276,-74.075485,-5,1,"40.73276, -74.075485"
970,98378,Retsil,WA,47.687971,-122.729304,-8,1,"47.687971, -122.729304"
971,59311,Alzada,MT,45.189905,-104.38569,-7,1,"45.189905, -104.38569"
972,98819,Conconully,WA,48.559477,-119.75473999999998,-8,1,"48.559477, -119.75474"
973,53964,Westfield,WI,43.907282,-89.49411999999998,-6,1,"43.907282, -89.49412"
974,98850,Rock Island,WA,47.360902,-120.11338,-8,1,"47.360902, -120.11338"
975,6263,Rogers,CT,41.839051,-71.90634,-5,1,"41.839051, -71.90634"
976,63079,Stanton,MO,38.274398,-91.085533,-6,1,"38.274398, -91.085533"
977,36080,Titus,AL,32.691057,-86.29429,-6,1,"32.691057, -86.29429"
978,25927,Stanaford,WV,37.748935,-81.224458,-5,1,"37.748935, -81.224458"
979,95380,Turlock,CA,37.48858,-120.85196,-8,1,"37.48858, -120.85196"
980,18641,Pittston,PA,41.333035,-75.74189,-5,1,"41.333035, -75.74189"
981,78231,San Antonio,TX,29.574677,-98.53946,-6,1,"29.574677, -98.53946"
982,76861,Miles,TX,31.58901,-100.1911,-6,1,"31.58901, -100.1911"
983,40746,London,KY,37.137615,-84.115617,-5,1,"37.137615, -84.115617"
984,79947,El Paso,TX,31.694842,-106.29998700000002,-7,1,"31.694842, -106.299987"
985,61272,New Boston,IL,41.223984,-91.0123,-6,1,"41.223984, -91.0123"
986,23709,Portsmouth,VA,36.868553,-76.355165,-5,1,"36.868553, -76.355165"
987,95382,Turlock,CA,37.523901,-120.8516,-8,1,"37.523901, -120.8516"
988,77341,Huntsville,TX,30.714476,-95.54977,-6,1,"30.714476, -95.54977"
989,35209,Birmingham,AL,33.468306,-86.80813999999998,-6,1,"33.468306, -86.80814"
990,58244,Inkster,ND,48.144073,-97.63321,-6,1,"48.144073, -97.63321"
991,5737,Chittenden,VT,43.735819,-72.93145,-5,1,"43.735819, -72.93145"
992,43828,Keene,OH,40.351271,-81.873607,-5,1,"40.351271, -81.873607"
993,67467,Minneapolis,KS,39.131275,-97.70794,-6,1,"39.131275, -97.70794"
994,87043,Placitas,NM,35.303843,-106.44361,-7,1,"35.303843, -106.44361"
995,57030,Garretson,SD,43.735778,-96.54332,-6,1,"43.735778, -96.54332"
996,66416,Circleville,KS,39.516144,-95.85396,-6,1,"39.516144, -95.85396"
997,82008,Cheyenne,WY,41.327351,-104.666365,-7,1,"41.327351, -104.666365"
998,57272,Wallace,SD,45.084154,-97.47891000000001,-6,1,"45.084154, -97.47891"
999,86441,Dolan Springs,AZ,35.607935,-114.30203,-7,0,"35.607935, -114.30203"
1000,48419,Carsonville,MI,43.420791,-82.64149999999998,-5,1,"43.420791, -82.6415"
1001,86545,Rock Point,AZ,36.662243,-109.59931,-7,0,"36.662243, -109.59931"
1002,76267,Slidell,TX,33.378039,-97.39219000000001,-6,1,"33.378039, -97.39219"
1003,27340,Saxapahaw,NC,35.948814,-79.32966399999998,-5,1,"35.948814, -79.329664"
1004,74577,Whitesboro,OK,34.689854,-94.8558,-6,1,"34.689854, -94.8558"
1005,65258,Holliday,MO,39.516668,-92.13198000000001,-6,1,"39.516668, -92.13198"
1006,93066,Somis,CA,34.287679,-119.02058999999998,-8,1,"34.287679, -119.02059"
1007,16530,Erie,PA,42.182748,-80.064915,-5,1,"42.182748, -80.064915"
1008,71855,Ozan,AR,33.865305,-93.7512,-6,1,"33.865305, -93.7512"
1009,67363,Sycamore,KS,37.327608,-95.71842,-6,1,"37.327608, -95.71842"
1010,24931,Crawley,WV,37.901788,-80.59452,-5,1,"37.901788, -80.59452"
1011,98442,Tacoma,WA,47.308061,-122.418495,-8,1,"47.308061, -122.418495"
1012,76374,Olney,TX,33.364868,-98.75201000000001,-6,1,"33.364868, -98.75201"
1013,92093,La Jolla,CA,33.016928,-116.846046,-8,1,"33.016928, -116.846046"
1014,93535,Lancaster,CA,34.691946,-117.97756000000001,-8,1,"34.691946, -117.97756"
1015,33630,Tampa,FL,27.871964,-82.43884099999998,-5,1,"27.871964, -82.438841"
1016,19969,Nassau,DE,38.725562,-75.353387,-5,1,"38.725562, -75.353387"
1017,12473,Round Top,NY,42.260709,-74.03077999999998,-5,1,"42.260709, -74.03078"
1018,24619,Horsepen,VA,37.13549,-81.563406,-5,1,"37.13549, -81.563406"
1019,62535,Forsyth,IL,39.925806,-88.95928,-6,1,"39.925806, -88.95928"
1020,40769,Williamsburg,KY,36.709853,-84.1508,-5,1,"36.709853, -84.1508"
1021,53201,Milwaukee,WI,43.011264,-87.958409,-6,1,"43.011264, -87.958409"
1022,6475,Old Saybrook,CT,41.289348,-72.38285,-5,1,"41.289348, -72.38285"
1023,37379,Soddy Daisy,TN,35.269694,-85.16227,-5,1,"35.269694, -85.16227"
1024,84643,Mayfield,UT,39.111512,-111.69904,-7,1,"39.111512, -111.69904"
1025,16436,Spring Creek,PA,41.860822,-79.51047,-5,1,"41.860822, -79.51047"
1026,29503,Florence,SC,34.062999,-79.650627,-5,1,"34.062999, -79.650627"
1027,98171,Seattle,WA,47.432251,-121.80338799999998,-8,1,"47.432251, -121.803388"
1028,68956,Kenesaw,NE,40.642616,-98.67681,-6,1,"40.642616, -98.67681"
1029,13901,Binghamton,NY,42.142575,-75.88782999999998,-5,1,"42.142575, -75.88783"
1030,53082,Sheboygan,WI,43.718294,-87.618716,-6,1,"43.718294, -87.618716"
1031,2144,Somerville,MA,42.399546,-71.12165,-5,1,"42.399546, -71.12165"
1032,49750,Lewiston,MI,44.884763,-84.35976999999998,-5,1,"44.884763, -84.35977"
1033,32726,Eustis,FL,28.850617,-81.68034,-5,1,"28.850617, -81.68034"
1034,15312,Avella,PA,40.264217,-80.44199,-5,1,"40.264217, -80.44199"
1035,60608,Chicago,IL,41.850532,-87.6699,-6,1,"41.850532, -87.6699"
1036,55550,Young America,MN,44.805487,-93.766524,-6,1,"44.805487, -93.766524"
1037,67420,Beloit,KS,39.440546,-98.07736000000001,-6,1,"39.440546, -98.07736"
1038,21504,Cumberland,MD,39.580691,-78.690593,-5,1,"39.580691, -78.690593"
1039,24327,Emory,VA,36.773659,-81.82770999999998,-5,1,"36.773659, -81.82771"
1040,54542,Long Lake,WI,45.920035,-88.68929,-6,1,"45.920035, -88.68929"
1041,83233,Dingle,ID,42.177359,-111.217381,-7,1,"42.177359, -111.217381"
1042,25713,Huntington,WV,38.413384,-82.277401,-5,1,"38.413384, -82.277401"
1043,92364,Nipton,CA,35.46019,-115.49467,-8,1,"35.46019, -115.49467"
1044,91799,Pomona,CA,33.786594,-118.298662,-8,1,"33.786594, -118.298662"
1045,6859,Norwalk,CT,41.308873,-73.36366099999998,-5,1,"41.308873, -73.363661"
1046,12845,Lake George,NY,43.41928,-73.70766,-5,1,"43.41928, -73.70766"
1047,30652,Greensboro,GA,33.559342,-83.36415599999998,-5,1,"33.559342, -83.364156"
1048,63303,Saint Charles,MO,38.762715,-90.53903,-6,1,"38.762715, -90.53903"
1049,47226,Clifford,IN,39.28249,-85.86852,-5,0,"39.28249, -85.86852"
1050,32314,Tallahassee,FL,30.479347,-84.346204,-5,1,"30.479347, -84.346204"
1051,65020,Camdenton,MO,38.032648,-92.78269,-6,1,"38.032648, -92.78269"
1052,33306,Fort Lauderdale,FL,26.165212,-80.11378999999998,-5,1,"26.165212, -80.11379"
1053,22194,Woodbridge,VA,38.721912,-77.466897,-5,1,"38.721912, -77.466897"
1054,92593,Temecula,CA,33.752886,-116.055617,-8,1,"33.752886, -116.055617"
1055,91615,North Hollywood,CA,33.786594,-118.298662,-8,1,"33.786594, -118.298662"
1056,34759,Kissimmee,FL,28.094144,-81.48394999999998,-5,1,"28.094144, -81.48395"
1057,92678,Trabuco Canyon,CA,33.673979,-117.59456999999999,-8,1,"33.673979, -117.59457"
1058,17555,Narvon,PA,40.126611,-75.96767,-5,1,"40.126611, -75.96767"
1059,33679,Tampa,FL,27.871964,-82.43884099999998,-5,1,"27.871964, -82.438841"
1060,27953,Manns Harbor,NC,35.795867,-75.85013999999998,-5,1,"35.795867, -75.85014"
1061,8756,Toms River,NJ,39.787966,-74.191058,-5,1,"39.787966, -74.191058"
1062,3830,East Wakefield,NH,43.640621,-70.98935,-5,1,"43.640621, -70.98935"
1063,42603,Alpha,KY,36.7703,-85.01043,-6,1,"36.7703, -85.01043"
1064,8792,Berkeley,NJ,39.907488,-74.081074,-5,1,"39.907488, -74.081074"
1065,45724,Cutler,OH,39.363901,-81.78854,-5,1,"39.363901, -81.78854"
1066,20118,Middleburg,VA,38.953454,-77.74996,-5,1,"38.953454, -77.74996"
1067,76039,Euless,TX,32.858727,-97.08453,-6,1,"32.858727, -97.08453"
1068,98203,Everett,WA,47.943468,-122.21792,-8,1,"47.943468, -122.21792"
1069,98570,Onalaska,WA,46.593526,-122.65346000000001,-8,1,"46.593526, -122.65346"
1070,76226,Argyle,TX,33.105309,-97.16294,-6,1,"33.105309, -97.16294"
1071,36331,Enterprise,AL,31.297817,-85.90363999999998,-6,1,"31.297817, -85.90364"
1072,7011,Clifton,NJ,40.879699,-74.14262999999998,-5,1,"40.879699, -74.14263"
1073,55349,Howard Lake,MN,45.064272,-94.07175,-6,1,"45.064272, -94.07175"
1074,52563,Hedrick,IA,41.17196,-92.28491,-6,1,"41.17196, -92.28491"
1075,59472,Sand Coulee,MT,47.409591,-111.13517,-7,1,"47.409591, -111.13517"
1076,37824,New Tazewell,TN,36.449963,-83.59112899999998,-5,1,"36.449963, -83.591129"
1077,85009,Phoenix,AZ,33.45635,-112.12378000000001,-7,0,"33.45635, -112.12378"
1078,26838,Milam,WV,38.81801,-79.09107,-5,1,"38.81801, -79.09107"
1079,84512,Bluff,UT,37.158935,-109.52773,-7,1,"37.158935, -109.52773"
1080,25090,Glen Ferris,WV,38.149058,-81.21276,-5,1,"38.149058, -81.21276"
1081,26587,Rachel,WV,39.520705,-80.30336,-5,1,"39.520705, -80.30336"
1082,83835,Hayden,ID,47.773595,-116.74906999999999,-8,1,"47.773595, -116.74907"
1083,36505,Axis,AL,30.930065,-88.00103,-6,1,"30.930065, -88.00103"
1084,61920,Charleston,IL,39.496547,-88.17348,-6,1,"39.496547, -88.17348"
1085,5672,Stowe,VT,44.475387,-72.70225,-5,1,"44.475387, -72.70225"
1086,19053,Feasterville Trevose,PA,40.148759,-74.98228,-5,1,"40.148759, -74.98228"
1087,27401,Greensboro,NC,36.071135,-79.77468,-5,1,"36.071135, -79.77468"
1088,23260,Richmond,VA,37.524246,-77.49315699999998,-5,1,"37.524246, -77.493157"
1089,92592,Temecula,CA,33.495343,-117.07656999999999,-8,1,"33.495343, -117.07657"
1090,34668,Port Richey,FL,28.30073,-82.69697999999998,-5,1,"28.30073, -82.69698"
1091,42254,La Fayette,KY,36.657405,-87.65632999999998,-6,1,"36.657405, -87.65633"
1092,59845,Hot Springs,MT,47.740524,-114.63533999999999,-7,1,"47.740524, -114.63534"
1093,66044,Lawrence,KS,38.983551,-95.23202,-6,1,"38.983551, -95.23202"
1094,43905,Barton,OH,40.105279,-80.84292,-5,1,"40.105279, -80.84292"
1095,76555,Maysfield,TX,30.784169,-96.96376,-6,1,"30.784169, -96.96376"
1096,46514,Elkhart,IN,41.707616,-85.97605,-5,0,"41.707616, -85.97605"
1097,62820,Burnt Prairie,IL,38.247883,-88.22943999999998,-6,1,"38.247883, -88.22944"
1098,61865,Potomac,IL,40.306774,-87.80715999999998,-6,1,"40.306774, -87.80716"
1099,69169,Wallace,NE,40.820868,-101.17982,-6,1,"40.820868, -101.17982"
1100,68841,Giltner,NE,40.769633,-98.16372,-6,1,"40.769633, -98.16372"
1101,62357,New Salem,IL,39.696523,-90.84253,-6,1,"39.696523, -90.84253"
1102,19941,Ellendale,DE,38.80136,-75.42595,-5,1,"38.80136, -75.42595"
1103,22096,Reston,VA,38.831813,-77.28875499999998,-5,1,"38.831813, -77.288755"
1104,28606,Boomer,NC,36.058853,-81.30496999999998,-5,1,"36.058853, -81.30497"
1105,62972,Ozark,IL,37.548762,-88.74145,-6,1,"37.548762, -88.74145"
1106,49715,Brimley,MI,46.411782,-84.66502,-5,1,"46.411782, -84.66502"
1107,4212,Auburn,ME,44.197009,-70.239485,-5,1,"44.197009, -70.239485"
1108,17213,Blairs Mills,PA,40.243335,-77.77414,-5,1,"40.243335, -77.77414"
1109,95979,Stonyford,CA,39.331444,-122.47943,-8,1,"39.331444, -122.47943"
1110,29721,Lancaster,SC,34.699412,-80.781721,-5,1,"34.699412, -80.781721"
1111,81057,McClave,CO,38.136132,-102.88325,-7,1,"38.136132, -102.88325"
1112,1077,Southwick,MA,42.05283,-72.76966,-5,1,"42.05283, -72.76966"
1113,4038,Gorham,ME,43.697118,-70.46301,-5,1,"43.697118, -70.46301"
1114,46031,Atlanta,IN,40.211166,-86.02303999999998,-5,0,"40.211166, -86.02304"
1115,76118,Fort Worth,TX,32.80533,-97.22264,-6,1,"32.80533, -97.22264"
1116,15552,Meyersdale,PA,39.805436,-79.00013,-5,1,"39.805436, -79.00013"
1117,12140,Poestenkill,NY,42.693228,-73.56922,-5,1,"42.693228, -73.56922"
1118,4776,Sherman Mills,ME,45.864106,-68.33986,-5,1,"45.864106, -68.33986"
1119,8210,Cape May Court House,NJ,39.081754,-74.83658,-5,1,"39.081754, -74.83658"
1120,28167,Union Mills,NC,35.48902,-81.95039,-5,1,"35.48902, -81.95039"
1121,77241,Houston,TX,29.833990000000004,-95.434241,-6,1,"29.83399, -95.434241"
1122,66998,Buffalo,KS,39.588426,-97.788817,-6,1,"39.588426, -97.788817"
1123,22122,Newington,VA,38.831813,-77.28875499999998,-5,1,"38.831813, -77.288755"
1124,57363,Mount Vernon,SD,43.69156,-98.2555,-6,1,"43.69156, -98.2555"
1125,14172,Wilson,NY,43.307288,-78.83368,-5,1,"43.307288, -78.83368"
1126,23873,Meredithville,VA,36.80878,-77.954397,-5,1,"36.80878, -77.954397"
1127,40619,Frankfort,KY,38.234133,-84.874809,-5,1,"38.234133, -84.874809"
1128,55728,Bigfork,MN,47.757041,-93.64059,-6,1,"47.757041, -93.64059"
1129,66505,Manhattan,KS,39.304937,-96.675295,-6,1,"39.304937, -96.675295"
1130,65529,Jerome,MO,37.926116,-91.98054,-6,1,"37.926116, -91.98054"
1131,16923,Genesee,PA,41.93668,-77.87089,-5,1,"41.93668, -77.87089"
1132,11977,Westhampton,NY,40.81819,-72.67834999999998,-5,1,"40.81819, -72.67835"
1133,52574,Mystic,IA,40.797559,-92.96436000000001,-6,1,"40.797559, -92.96436"
1134,25209,Whitesville,WV,37.978232,-81.53288,-5,1,"37.978232, -81.53288"
1135,63381,Truxton,MO,38.995145,-91.2336,-6,1,"38.995145, -91.2336"
1136,35773,Toney,AL,34.90267,-86.71366999999998,-6,1,"34.90267, -86.71367"
1137,2125,Boston,MA,42.316852,-71.05811,-5,1,"42.316852, -71.05811"
1138,28510,Arapahoe,NC,35.000658,-76.81297,-5,1,"35.000658, -76.81297"
1139,46107,Beech Grove,IN,39.718744,-86.09375,-5,0,"39.718744, -86.09375"
1140,94134,San Francisco,CA,37.719581,-122.41085,-8,1,"37.719581, -122.41085"
1141,60195,Schaumburg,IL,42.067809,-88.10827999999998,-6,1,"42.067809, -88.10828"
1142,17925,Brockton,PA,40.750666,-76.06899,-5,1,"40.750666, -76.06899"
1143,58331,Egeland,ND,48.65545,-99.11415,-6,1,"48.65545, -99.11415"
1144,13361,Jordanville,NY,42.902922,-74.89149,-5,1,"42.902922, -74.89149"
1145,66845,Cottonwood Falls,KS,38.344157,-96.52969,-6,1,"38.344157, -96.52969"
1146,72126,Perryville,AR,34.965699,-92.86841,-6,1,"34.965699, -92.86841"
1147,34219,Parrish,FL,27.574128,-82.40701,-5,1,"27.574128, -82.40701"
1148,99820,Angoon,AK,57.48765,-134.57222,-9,1,"57.48765, -134.57222"
1149,80031,Westminster,CO,39.866785,-105.04143,-7,1,"39.866785, -105.04143"
1150,7631,Englewood,NJ,40.893343,-73.9758,-5,1,"40.893343, -73.9758"
1151,78204,San Antonio,TX,29.403583,-98.5063,-6,1,"29.403583, -98.5063"
1152,11545,Glen Head,NY,40.823957,-73.60415,-5,1,"40.823957, -73.60415"
1153,95110,San Jose,CA,37.335545,-121.89877,-8,1,"37.335545, -121.89877"
1154,87053,San Ysidro,NM,35.52706400000001,-106.80866,-7,1,"35.527064, -106.80866"
1155,70658,Reeves,LA,30.518748,-93.02735,-6,1,"30.518748, -93.02735"
1156,50078,Ferguson,IA,41.93746,-92.865,-6,1,"41.93746, -92.865"
1157,24136,Pembroke,VA,37.31803,-80.62267,-5,1,"37.31803, -80.62267"
1158,92413,San Bernardino,CA,34.839964,-115.967051,-8,1,"34.839964, -115.967051"
1159,48878,Rosebush,MI,43.713365,-84.77731,-5,1,"43.713365, -84.77731"
1160,50334,Des Moines,IA,41.672687,-93.572173,-6,1,"41.672687, -93.572173"
1161,45055,Overpeck,OH,39.451806,-84.51524499999998,-5,1,"39.451806, -84.515245"
1162,45768,Newport,OH,39.397077,-81.25508,-5,1,"39.397077, -81.25508"
1163,28605,Blowing Rock,NC,36.133083,-81.68783,-5,1,"36.133083, -81.68783"
1164,33052,Marathon Shores,FL,24.723283,-81.063249,-5,1,"24.723283, -81.063249"
1165,79453,Lubbock,TX,33.610018,-101.821292,-6,1,"33.610018, -101.821292"
1166,51234,Boyden,IA,43.19528,-96.01511,-6,1,"43.19528, -96.01511"
1167,18631,Mifflinville,PA,41.028617,-76.30717,-5,1,"41.028617, -76.30717"
1168,36569,Saint Stephens,AL,31.529488,-88.06349,-6,1,"31.529488, -88.06349"
1169,52175,West Union,IA,42.983744,-91.81803,-6,1,"42.983744, -91.81803"
1170,62707,Springfield,IL,39.757896,-89.66363,-6,1,"39.757896, -89.66363"
1171,96111,Floriston,CA,39.392752,-120.021212,-8,1,"39.392752, -120.021212"
1172,28420,Ash,NC,34.07367,-78.48214,-5,1,"34.07367, -78.48214"
1173,7688,Teaneck,NJ,40.948054,-74.083231,-5,1,"40.948054, -74.083231"
1174,29683,Slater,SC,35.031252,-82.49424999999998,-5,1,"35.031252, -82.49425"
1175,85296,Gilbert,AZ,33.319722,-111.76078000000001,-7,0,"33.319722, -111.76078"
1176,65046,Jamestown,MO,38.77066,-92.48206,-6,1,"38.77066, -92.48206"
1177,18460,South Sterling,PA,41.255644,-75.34474,-5,1,"41.255644, -75.34474"
1178,80461,Leadville,CO,39.231776,-106.31398999999999,-7,1,"39.231776, -106.31399"
1179,70707,Gonzales,LA,30.204707,-90.869481,-6,1,"30.204707, -90.869481"
1180,85927,Greer,AZ,33.801744,-109.58336000000001,-7,0,"33.801744, -109.58336"
1181,27409,Greensboro,NC,36.083885,-79.94122,-5,1,"36.083885, -79.94122"
1182,77973,Mcfaddin,TX,28.532052,-96.9902,-6,1,"28.532052, -96.9902"
1183,66071,Paola,KS,38.574804,-94.86706,-6,1,"38.574804, -94.86706"
1184,29329,Converse,SC,35.001748,-81.832999,-5,1,"35.001748, -81.832999"
1185,33197,Miami,FL,25.558428,-80.458168,-5,1,"25.558428, -80.458168"
1186,55602,Brimson,MN,47.309443,-91.87839,-6,1,"47.309443, -91.87839"
1187,18926,Gardenville,PA,40.39473,-75.09846799999998,-5,1,"40.39473, -75.098468"
1188,31641,Naylor,GA,30.934298,-83.08840999999998,-5,1,"30.934298, -83.08841"
1189,2258,Newton,MA,42.446396,-71.459405,-5,1,"42.446396, -71.459405"
1190,47640,Hazleton,IN,38.484278,-87.5039,-6,1,"38.484278, -87.5039"
1191,30024,Suwanee,GA,34.052698,-84.07485,-5,1,"34.052698, -84.07485"
1192,98352,Sumner,WA,47.066193,-122.113223,-8,1,"47.066193, -122.113223"
1193,64018,Camden Point,MO,39.446161,-94.73858000000001,-6,1,"39.446161, -94.73858"
1194,75069,McKinney,TX,33.195073,-96.60363,-6,1,"33.195073, -96.60363"
1195,14653,Rochester,NY,43.286024,-77.684264,-5,1,"43.286024, -77.684264"
1196,98381,Sekiu,WA,48.283826,-124.37144,-8,1,"48.283826, -124.37144"
1197,76527,Florence,TX,30.833293,-97.8049,-6,1,"30.833293, -97.8049"
1198,56529,Dilworth,MN,46.878062,-96.70242,-6,1,"46.878062, -96.70242"
1199,70118,New Orleans,LA,29.952305,-90.12347,-6,1,"29.952305, -90.12347"
1200,10007,New York,NY,40.714754,-74.00721,-5,1,"40.714754, -74.00721"
1201,98271,Marysville,WA,48.093129,-122.21614,-8,1,"48.093129, -122.21614"
1202,97738,Hines,OR,43.471016,-119.21005,-8,1,"43.471016, -119.21005"
1203,87016,Estancia,NM,34.775863,-106.12269,-7,1,"34.775863, -106.12269"
1204,72101,McCrory,AR,35.224432,-91.15291,-6,1,"35.224432, -91.15291"
1205,37352,Lynchburg,TN,35.276795,-86.35263999999998,-6,1,"35.276795, -86.35264"
1206,92406,San Bernardino,CA,34.839964,-115.967051,-8,1,"34.839964, -115.967051"
1207,79326,Fieldton,TX,34.04877,-102.20958,-6,1,"34.04877, -102.20958"
1208,58348,Maddock,ND,47.955217,-99.52317,-6,1,"47.955217, -99.52317"
1209,24555,Glasgow,VA,37.641788,-79.45652,-5,1,"37.641788, -79.45652"
1210,80237,Denver,CO,39.643637,-104.90406000000002,-7,1,"39.643637, -104.90406"
1211,91125,Pasadena,CA,33.786594,-118.298662,-8,1,"33.786594, -118.298662"
1212,50330,Des Moines,IA,41.672687,-93.572173,-6,1,"41.672687, -93.572173"
1213,21044,Columbia,MD,39.21536,-76.87823,-5,1,"39.21536, -76.87823"
1214,48823,East Lansing,MI,42.747922,-84.47143,-5,1,"42.747922, -84.47143"
1215,52052,Guttenberg,IA,42.765031,-91.11376000000001,-6,1,"42.765031, -91.11376"
1216,95946,Penn Valley,CA,39.207828,-121.20021000000001,-8,1,"39.207828, -121.20021"
1217,7108,Newark,NJ,40.722751,-74.2014,-5,1,"40.722751, -74.2014"
1218,55305,Hopkins,MN,44.953763,-93.43346,-6,1,"44.953763, -93.43346"
1219,27109,Winston Salem,NC,36.133577,-80.27679999999998,-5,1,"36.133577, -80.2768"
1220,24351,Lambsburg,VA,36.580074,-80.76311,-5,1,"36.580074, -80.76311"
1221,46771,Mongo,IN,41.665489,-85.267567,-5,0,"41.665489, -85.267567"
1222,47225,Clarksburg,IN,39.424072,-85.347677,-5,0,"39.424072, -85.347677"
1223,6786,Terryville,CT,41.676415,-73.00835999999998,-5,1,"41.676415, -73.00836"
1224,50054,Colfax,IA,41.682808,-93.23591,-6,1,"41.682808, -93.23591"
1225,38190,Memphis,TN,35.201738,-89.97153799999998,-6,1,"35.201738, -89.971538"
1226,15037,Elizabeth,PA,40.258438,-79.85946,-5,1,"40.258438, -79.85946"
1227,88529,El Paso,TX,31.694842,-106.29998700000002,-7,1,"31.694842, -106.299987"
1228,91007,Arcadia,CA,34.126957,-118.05216000000001,-8,1,"34.126957, -118.05216"
1229,38388,Wildersville,TN,35.78209300000001,-88.35061,-6,1,"35.782093, -88.35061"
1230,62702,Springfield,IL,39.819,-89.64378999999998,-6,1,"39.819, -89.64379"
1231,8890,Zarephath,NJ,40.536069,-74.578872,-5,1,"40.536069, -74.578872"
1232,53929,Elroy,WI,43.752732,-90.2853,-6,1,"43.752732, -90.2853"
1233,32313,Tallahassee,FL,30.479347,-84.346204,-5,1,"30.479347, -84.346204"
1234,51436,Breda,IA,42.186982,-95.00487,-6,1,"42.186982, -95.00487"
1235,22711,Banco,VA,38.476275,-78.2729,-5,1,"38.476275, -78.2729"
1236,58566,Saint Anthony,ND,46.59174,-100.93332,-6,1,"46.59174, -100.93332"
1237,59420,Carter,MT,47.834943,-110.98801,-7,1,"47.834943, -110.98801"
1238,62241,Ellis Grove,IL,38.011729,-89.89006999999998,-6,1,"38.011729, -89.89007"
1239,39645,Liberty,MS,31.148177,-90.79859,-6,1,"31.148177, -90.79859"
1240,60603,Chicago,IL,41.880446,-87.63013999999998,-6,1,"41.880446, -87.63014"
1241,30272,Red Oak,GA,33.625894,-84.516327,-5,1,"33.625894, -84.516327"
1242,23293,Richmond,VA,37.524246,-77.49315699999998,-5,1,"37.524246, -77.493157"
1243,56220,Canby,MN,44.725437,-96.2921,-6,1,"44.725437, -96.2921"
1244,92396,Winchester,CA,33.714421,-117.06936100000001,-8,1,"33.714421, -117.069361"
1245,42503,Somerset,KY,37.112274,-84.58799999999998,-5,1,"37.112274, -84.588"
1246,24460,Millboro,VA,38.015153,-79.65065,-5,1,"38.015153, -79.65065"
1247,1349,Turners Falls,MA,42.5737,-72.50525,-5,1,"42.5737, -72.50525"
1248,38774,Shelby,MS,33.947701,-90.76417,-6,1,"33.947701, -90.76417"
1249,28124,Mount Pleasant,NC,35.407499,-80.41227999999998,-5,1,"35.407499, -80.41228"
1250,44626,East Sparta,OH,40.695377,-81.38102,-5,1,"40.695377, -81.38102"
1251,66042,Lane,KS,38.442448,-95.09067,-6,1,"38.442448, -95.09067"
1252,30905,Augusta,GA,33.417282,-82.14435,-5,1,"33.417282, -82.14435"
1253,45645,Kitts Hill,OH,38.557052,-82.53744,-5,1,"38.557052, -82.53744"
1254,32932,Cocoa Beach,FL,28.306726,-80.686159,-5,1,"28.306726, -80.686159"
1255,83256,Moreland,ID,43.222648,-112.442253,-7,1,"43.222648, -112.442253"
1256,68345,Du Bois,NE,40.034277,-96.02099,-6,1,"40.034277, -96.02099"
1257,19316,Brandamore,PA,40.058565,-75.83584,-5,1,"40.058565, -75.83584"
1258,26346,Ellenboro,WV,39.270902,-81.06189,-5,1,"39.270902, -81.06189"
1259,48060,Port Huron,MI,42.978974,-82.44401999999998,-5,1,"42.978974, -82.44402"
1260,89435,Sparks,NV,40.541218,-119.58693400000001,-8,1,"40.541218, -119.586934"
1261,29215,Columbia,SC,34.005992,-80.970766,-5,1,"34.005992, -80.970766"
1262,68380,Lewiston,NE,40.242528,-96.40309,-6,1,"40.242528, -96.40309"
1263,14478,Keuka Park,NY,42.589281,-77.11824,-5,1,"42.589281, -77.11824"
1264,3873,Sandown,NH,42.929588,-71.18444,-5,1,"42.929588, -71.18444"
1265,38016,Memphis,TN,35.177475,-89.776835,-6,1,"35.177475, -89.776835"
1266,38237,Martin,TN,36.353928,-88.84191,-6,1,"36.353928, -88.84191"
1267,94188,San Francisco,CA,37.784827,-122.727802,-8,1,"37.784827, -122.727802"
1268,64655,Lucerne,MO,40.448227,-93.25995,-6,1,"40.448227, -93.25995"
1269,46240,Indianapolis,IN,39.902039,-86.12948,-5,0,"39.902039, -86.12948"
1270,95207,Stockton,CA,38.004172,-121.3237,-8,1,"38.004172, -121.3237"
1271,80106,Elbert,CO,39.148692,-104.5635,-7,1,"39.148692, -104.5635"
1272,58433,Edgeley,ND,46.366866,-98.72145,-6,1,"46.366866, -98.72145"
1273,6131,Newington,CT,41.791776,-72.718832,-5,1,"41.791776, -72.718832"
1274,29844,Parksville,SC,33.7802,-82.21285,-5,1,"33.7802, -82.21285"
1275,33841,Fort Meade,FL,27.7437,-81.79405,-5,1,"27.7437, -81.79405"
1276,1901,Lynn,MA,42.461246,-70.946743,-5,1,"42.461246, -70.946743"
1277,32440,Graceville,FL,30.935306,-85.52171,-6,1,"30.935306, -85.52171"
1278,20108,Manassas,VA,38.744685,-77.487162,-5,1,"38.744685, -77.487162"
1279,7444,Pompton Plains,NJ,40.964548,-74.29813,-5,1,"40.964548, -74.29813"
1280,91362,Thousand Oaks,CA,34.190804,-118.83703999999999,-8,1,"34.190804, -118.83704"
1281,50013,Ames,IA,42.023535,-93.640818,-6,1,"42.023535, -93.640818"
1282,26554,Fairmont,WV,39.470949,-80.13935999999998,-5,1,"39.470949, -80.13936"
1283,74366,Spavinaw,OK,36.394258,-95.04869,-6,1,"36.394258, -95.04869"
1284,19351,Lewisville,PA,39.983153,-75.74805499999998,-5,1,"39.983153, -75.748055"
1285,27030,Mount Airy,NC,36.49376,-80.62336,-5,1,"36.49376, -80.62336"
1286,2495,Nonantum,MA,42.446396,-71.459405,-5,1,"42.446396, -71.459405"
1287,45000,North Bend,OH,39.147991,-84.739682,-5,1,"39.147991, -84.739682"
1288,18707,Mountain Top,PA,41.133482,-75.91939999999998,-5,1,"41.133482, -75.9194"
1289,23519,Norfolk,VA,36.931166,-76.23972,-5,1,"36.931166, -76.23972"
1290,28281,Charlotte,NC,35.26002,-80.804151,-5,1,"35.26002, -80.804151"
1291,64481,Ridgeway,MO,40.358817,-93.90776,-6,1,"40.358817, -93.90776"
1292,83425,Hamer,ID,43.951754,-112.23218999999999,-7,1,"43.951754, -112.23219"
1293,15920,Armagh,PA,40.460191,-79.04608,-5,1,"40.460191, -79.04608"
1294,94286,Sacramento,CA,38.377411,-121.444429,-8,1,"38.377411, -121.444429"
1295,61369,Toluca,IL,40.992084,-89.15231,-6,1,"40.992084, -89.15231"
1296,42078,Salem,KY,37.282124,-88.24567999999998,-6,1,"37.282124, -88.24568"
1297,13693,Three Mile Bay,NY,44.064999,-76.24022999999998,-5,1,"44.064999, -76.24023"
1298,26289,Red Creek,WV,38.99095,-79.50217,-5,1,"38.99095, -79.50217"
1299,19815,Amity,PA,40.318615,-75.755807,-5,1,"40.318615, -75.755807"
1300,34691,Holiday,FL,28.19006,-82.75735,-5,1,"28.19006, -82.75735"
1301,13861,West Oneonta,NY,42.488953,-75.12063,-5,1,"42.488953, -75.12063"
1302,65326,Edwards,MO,38.203621,-93.14236,-6,1,"38.203621, -93.14236"
1303,94942,Mill Valley,CA,38.068036,-122.74098799999999,-8,1,"38.068036, -122.740988"
1304,58329,Dunseith,ND,48.855835,-100.03636,-6,1,"48.855835, -100.03636"
1305,85377,Carefree,AZ,33.276539,-112.18717,-7,0,"33.276539, -112.18717"
1306,62917,Carrier Mills,IL,37.692923,-88.65284,-6,1,"37.692923, -88.65284"
1307,73717,Alva,OK,36.804875,-98.69707,-6,1,"36.804875, -98.69707"
1308,99123,Electric City,WA,47.907923,-119.06531000000001,-8,1,"47.907923, -119.06531"
1309,78603,Bebe,TX,29.447211,-97.494649,-6,1,"29.447211, -97.494649"
1310,19370,Steelville,PA,39.983153,-75.74805499999998,-5,1,"39.983153, -75.748055"
1311,4642,Harborside,ME,44.322421,-68.80933,-5,1,"44.322421, -68.80933"
1312,4258,Minot,ME,44.154921,-70.33319,-5,1,"44.154921, -70.33319"
1313,60480,Willow Springs,IL,41.737616,-87.87778,-6,1,"41.737616, -87.87778"
1314,39061,Delta City,MS,33.075557,-90.84298,-6,1,"33.075557, -90.84298"
1315,83812,Clarkia,ID,46.999999,-116.26693,-8,1,"46.999999, -116.26693"
1316,69340,Ellsworth,NE,42.23242,-102.19792,-7,1,"42.23242, -102.19792"
1317,37073,Greenbrier,TN,36.427758,-86.81023,-6,1,"36.427758, -86.81023"
1318,54425,Dorchester,WI,45.006072,-90.33146,-6,1,"45.006072, -90.33146"
1319,30179,Temple,GA,33.76324,-85.02666999999998,-5,1,"33.76324, -85.02667"
1320,46699,South Bend,IN,41.596769,-86.292991,-5,0,"41.596769, -86.292991"
1321,66606,Topeka,KS,39.058177,-95.71088,-6,1,"39.058177, -95.71088"
1322,66778,Treece,KS,37.000262,-94.84372,-6,1,"37.000262, -94.84372"
1323,41543,McAndrews,KY,37.553553,-82.28283,-5,1,"37.553553, -82.28283"
1324,12149,Richmondville,NY,42.63119,-74.572,-5,1,"42.63119, -74.572"
1325,4034,Freeport,ME,44.408078,-70.470703,-5,1,"44.408078, -70.470703"
1326,29307,Spartanburg,SC,34.982424,-81.85729,-5,1,"34.982424, -81.85729"
1327,87041,Pena Blanca,NM,35.584234,-106.32728,-7,1,"35.584234, -106.32728"
1328,39058,Clinton,MS,32.311287,-90.397157,-6,1,"32.311287, -90.397157"
1329,2833,Hopkinton,RI,41.470822,-71.77722,-5,1,"41.470822, -71.77722"
1330,24312,Austinville,VA,36.837699,-80.85731,-5,1,"36.837699, -80.85731"
1331,85352,Tacna,AZ,32.693448,-113.97631299999999,-7,0,"32.693448, -113.976313"
1332,18602,Bear Creek,PA,41.184986,-75.75144,-5,1,"41.184986, -75.75144"
1333,57347,Benton,SD,43.73319,-97.607194,-6,1,"43.73319, -97.607194"
1334,48242,Detroit,MI,42.20649,-83.35297,-5,1,"42.20649, -83.35297"
1335,75915,Lufkin,TX,31.287257,-94.57708400000001,-6,1,"31.287257, -94.577084"
1336,29938,Hilton Head Island,SC,32.390605,-80.661027,-5,1,"32.390605, -80.661027"
1337,46220,Indianapolis,IN,39.866913,-86.12323,-5,0,"39.866913, -86.12323"
1338,11412,Saint Albans,NY,40.697188,-73.75947999999998,-5,1,"40.697188, -73.75948"
1339,81638,Hamilton,CO,40.298366,-107.51756,-7,1,"40.298366, -107.51756"
1340,17233,McConnellsburg,PA,39.942589,-77.99528999999998,-5,1,"39.942589, -77.99529"
1341,1854,Lowell,MA,42.649758,-71.33348,-5,1,"42.649758, -71.33348"
1342,52215,Chelsea,IA,41.914489,-92.39359,-6,1,"41.914489, -92.39359"
1343,7208,Elizabeth,NJ,40.673102,-74.22834,-5,1,"40.673102, -74.22834"
1344,92166,San Diego,CA,33.016928,-116.846046,-8,1,"33.016928, -116.846046"
1345,54152,Nichols,WI,44.565437,-88.46716999999998,-6,1,"44.565437, -88.46717"
1346,85218,Gold Camp,AZ,33.349996,-111.418233,-7,0,"33.349996, -111.418233"
1347,28272,Charlotte,NC,35.26002,-80.804151,-5,1,"35.26002, -80.804151"
1348,94115,San Francisco,CA,37.786129,-122.43736000000001,-8,1,"37.786129, -122.43736"
1349,50329,Des Moines,IA,41.672687,-93.572173,-6,1,"41.672687, -93.572173"
1350,98849,Riverside,WA,48.528793,-119.45276000000001,-8,1,"48.528793, -119.45276"
1351,49505,Grand Rapids,MI,43.000076,-85.64785,-5,1,"43.000076, -85.64785"
1352,30610,Athens,GA,33.944339,-83.38908,-5,1,"33.944339, -83.38908"
1353,63877,Steele,MO,36.079378,-89.84896,-6,1,"36.079378, -89.84896"
1354,37803,Maryville,TN,35.69335800000001,-83.98412,-5,1,"35.693358, -83.98412"
1355,93516,Boron,CA,35.030694,-117.67263999999999,-8,1,"35.030694, -117.67264"
1356,38379,Stantonville,TN,35.159237,-88.41878,-6,1,"35.159237, -88.41878"
1357,82523,Pavillion,WY,43.312211,-108.56038,-7,1,"43.312211, -108.56038"
1358,56639,Effie,MN,47.852874,-93.50758,-6,1,"47.852874, -93.50758"
1359,24157,Salem,VA,37.288384,-80.067062,-5,1,"37.288384, -80.067062"
1360,59525,Gildford,MT,48.733088,-110.32495,-7,1,"48.733088, -110.32495"
1361,66417,Corning,KS,39.655741,-96.03394,-6,1,"39.655741, -96.03394"
1362,18085,Tatamy,PA,40.740769,-75.25335,-5,1,"40.740769, -75.25335"
